[{"coordinates": {"lat": 45.73585913085516, "lon": 4.778563831610263}, "data": {"theme": "SPORT", "nom": "Tennis du Village", "soustheme": "Equipement sportif"}}, {"coordinates": {"lat": 45.75825899974609, "lon": 4.848256467864724}, "data": {"theme": "SPORT", "nom": "Stade Vert Simone Prelle", "soustheme": "Equipement sportif"}}, {"coordinates": {"lat": 45.7783359909376, "lon": 4.816307525092077}, "data": {"theme": "SPORT", "nom": "Terrain de Sports Henri Ferr\u00e9", "soustheme": "Equipement sportif"}}, {"coordinates": {"lat": 45.719011101177166, "lon": 4.866952547544063}, "data": {"theme": "SPORT", "nom": "Gymnase Georges L\u00e9vy", "soustheme": "Equipement sportif"}}, {"coordinates": {"lat": 45.78749037569893, "lon": 4.712765803477052}, "data": {"theme": "SPORT", "nom": "Stade Docteur M\u00e9rieux", "soustheme": "Equipement sportif"}}, {"coordinates": {"lat": 45.71764754189943, "lon": 4.884062430814956}, "data": {"theme": "SPORT", "nom": "Gymnase Jacques Anquetil", "soustheme": "Equipement sportif"}}, {"coordinates": {"lat": 45.71151596822373, "lon": 4.887388465814847}, "data": {"theme": "SPORT", "nom": "Gymnase Jules Guesde", "soustheme": "Equipement sportif"}}, {"coordinates": {"lat": 45.696399074075856, "lon": 4.897525548988625}, "data": {"theme": "SPORT", "nom": "Gymnase Louis Aragon", "soustheme": "Equipement sportif"}}, {"coordinates": {"lat": 45.76900330445857, "lon": 4.887675621719928}, "data": {"theme": "SPORT", "nom": "Jeux de Boules de la Maison des Sports", "soustheme": "Equipement sportif"}}, {"coordinates": {"lat": 45.76502198417105, "lon": 4.982074313461825}, "data": {"theme": "SPORT", "nom": "Grand Stade", "soustheme": "Equipement sportif"}}, {"coordinates": {"lat": 45.75564910938888, "lon": 4.915980103518706}, "data": {"theme": "SPORT", "nom": "Terrain de Proximit\u00e9 Moulaire", "soustheme": "Equipement sportif"}}, {"coordinates": {"lat": 45.76722838167036, "lon": 4.804179605177378}, "data": {"theme": "SPORT", "nom": "Gymnase Jean Zay", "soustheme": "Equipement sportif"}}, {"coordinates": {"lat": 45.763743080766325, "lon": 4.885979389950501}, "data": {"theme": "SPORT", "nom": "Complexe Sportif et Culturel Marcel Brunot", "soustheme": "Equipement sportif"}}, {"coordinates": {"lat": 45.77406833559847, "lon": 4.863029896123828}, "data": {"theme": "SPORT", "nom": "Terrain de Proximit\u00e9 Jean Monnet", "soustheme": "Equipement sportif"}}, {"coordinates": {"lat": 45.7649832048382, "lon": 4.88407508598458}, "data": {"theme": "SPORT", "nom": "Centre Sportif Municipal VAP", "soustheme": "Equipement sportif"}}, {"coordinates": {"lat": 45.69708292883552, "lon": 4.8907503859545045}, "data": {"theme": "SPORT", "nom": "Office Municipal du Sport", "soustheme": "Equipement sportif"}}, {"coordinates": {"lat": 45.76039922453343, "lon": 4.808858022191952}, "data": {"theme": "SPORT", "nom": "Piscine d'\u00e9t\u00e9 Pierre Audry", "soustheme": "Piscine"}}, {"coordinates": {"lat": 45.760232048715444, "lon": 4.808765139649233}, "data": {"theme": "SPORT", "nom": "Gymnase Pierre Audry", "soustheme": "Equipement sportif"}}, {"coordinates": {"lat": 45.749676836065525, "lon": 4.840237137041308}, "data": {"theme": "SPORT", "nom": "Terrain de Sports Georges Cl\u00e9menceau", "soustheme": "Equipement sportif"}}, {"coordinates": {"lat": 45.74674367176138, "lon": 4.849426201325112}, "data": {"theme": "SPORT", "nom": "Gymnase Sauveur Repos", "soustheme": "Equipement sportif"}}, {"coordinates": {"lat": 45.743652461144464, "lon": 4.839631012276219}, "data": {"theme": "SPORT", "nom": "Gymnase Victor Lagrange", "soustheme": "Equipement sportif"}}, {"coordinates": {"lat": 45.7438423531247, "lon": 4.839532922856876}, "data": {"theme": "SPORT", "nom": "Jeux de Boules Victor Lagrange", "soustheme": "Equipement sportif"}}, {"coordinates": {"lat": 45.751298699375006, "lon": 4.848801896465296}, "data": {"theme": "SPORT", "nom": "Jeux de Boules du Clos vert", "soustheme": "Equipement sportif"}}, {"coordinates": {"lat": 45.72399466362234, "lon": 4.828295473071191}, "data": {"theme": "SPORT", "nom": "Palais des Sports de Gerland", "soustheme": "Equipement sportif"}}, {"coordinates": {"lat": 45.72593714597692, "lon": 4.831201838573163}, "data": {"theme": "SPORT", "nom": "Stade de Gerland", "soustheme": "Equipement sportif"}}, {"coordinates": {"lat": 45.74306575820285, "lon": 4.837199748473506}, "data": {"theme": "SPORT", "nom": "Poney Club du Nanchet", "soustheme": "Equipement sportif"}}, {"coordinates": {"lat": 45.787924256885454, "lon": 4.7989254522914315}, "data": {"theme": "SPORT", "nom": "Piscine d'\u00e9t\u00e9 de la Duch\u00e8re", "soustheme": "Piscine"}}, {"coordinates": {"lat": 45.78908507058369, "lon": 4.788173859046683}, "data": {"theme": "SPORT", "nom": "Stade de la Sauvegarde", "soustheme": "Equipement sportif"}}, {"coordinates": {"lat": 45.76841274160868, "lon": 4.840803120248006}, "data": {"theme": "SPORT", "nom": "Terrain de Proximit\u00e9 Morand Sarrail", "soustheme": "Equipement sportif"}}, {"coordinates": {"lat": 45.771559180690375, "lon": 4.856060699854262}, "data": {"theme": "SPORT", "nom": "Terrain de Sports Anatole France", "soustheme": "Equipement sportif"}}, {"coordinates": {"lat": 45.81776366753893, "lon": 4.867101435327972}, "data": {"theme": "SPORT", "nom": "Tennis Delorme", "soustheme": "Equipement sportif"}}, {"coordinates": {"lat": 45.82298482378009, "lon": 4.876691071936222}, "data": {"theme": "SPORT", "nom": "Tennis Boutarey", "soustheme": "Equipement sportif"}}, {"coordinates": {"lat": 45.744261073901086, "lon": 4.727222638954674}, "data": {"theme": "SPORT", "nom": "Gymnase Jean Rostand", "soustheme": "Equipement sportif"}}, {"coordinates": {"lat": 45.743939177586896, "lon": 4.726257759133239}, "data": {"theme": "SPORT", "nom": "Stade Ren\u00e9 Berthaud", "soustheme": "Equipement sportif"}}, {"coordinates": {"lat": 45.743037422587264, "lon": 4.7113709615809745}, "data": {"theme": "SPORT", "nom": "Stade Neveu", "soustheme": "Equipement sportif"}}, {"coordinates": {"lat": 45.73977045909513, "lon": 4.711399288583698}, "data": {"theme": "SPORT", "nom": "Tennis Club de la Gatoli\u00e8re", "soustheme": "Equipement sportif"}}, {"coordinates": {"lat": 45.783425693348505, "lon": 4.785790775022677}, "data": {"theme": "SPORT", "nom": "Piscine d'Ecully", "soustheme": "Piscine"}}, {"coordinates": {"lat": 45.78125704538531, "lon": 4.786635222755518}, "data": {"theme": "SPORT", "nom": "Stade d'Ecully", "soustheme": "Equipement sportif"}}, {"coordinates": {"lat": 45.782730189044734, "lon": 4.7855547081361784}, "data": {"theme": "SPORT", "nom": "Gymnase des Cerisiers", "soustheme": "Equipement sportif"}}, {"coordinates": {"lat": 45.78360775834698, "lon": 4.788576770063666}, "data": {"theme": "SPORT", "nom": "Gymnase Fran\u00e7ois Cevert", "soustheme": "Equipement sportif"}}, {"coordinates": {"lat": 45.77114204949815, "lon": 4.795584165108477}, "data": {"theme": "SPORT", "nom": "Stade Gilbert Vignes", "soustheme": "Equipement sportif"}}, {"coordinates": {"lat": 45.7820998108028, "lon": 4.80937247958617}, "data": {"theme": "SPORT", "nom": "Stade Joseph Boucaud", "soustheme": "Equipement sportif"}}, {"coordinates": {"lat": 45.79767910123094, "lon": 4.818943571514853}, "data": {"theme": "SPORT", "nom": "Tennis Club de Saint Rambert", "soustheme": "Equipement sportif"}}, {"coordinates": {"lat": 45.75593674906196, "lon": 4.917737655769584}, "data": {"theme": "SPORT", "nom": "Stade Enna", "soustheme": "Equipement sportif"}}, {"coordinates": {"lat": 45.78399340174993, "lon": 4.899248463572686}, "data": {"theme": "SPORT", "nom": "Stade Antoine Firmin", "soustheme": "Equipement sportif"}}, {"coordinates": {"lat": 45.785011650613214, "lon": 4.898811924182615}, "data": {"theme": "SPORT", "nom": "Tennis Rh\u00f4ne Sport Tennis", "soustheme": "Equipement sportif"}}, {"coordinates": {"lat": 45.77549070237577, "lon": 4.869296330572197}, "data": {"theme": "SPORT", "nom": "Terrain de Proximit\u00e9 Salengro", "soustheme": "Equipement sportif"}}, {"coordinates": {"lat": 45.781073021744085, "lon": 4.892979125855346}, "data": {"theme": "SPORT", "nom": "Terrain de Proximit\u00e9 de la Boube", "soustheme": "Equipement sportif"}}, {"coordinates": {"lat": 45.76001417901245, "lon": 4.881712062995139}, "data": {"theme": "SPORT", "nom": "Terrain de Proximit\u00e9 La Fontaine", "soustheme": "Equipement sportif"}}, {"coordinates": {"lat": 45.765596840834924, "lon": 4.795253620185288}, "data": {"theme": "SPORT", "nom": "Stade des Deux Amants", "soustheme": "Equipement sportif"}}, {"coordinates": {"lat": 45.78899523357329, "lon": 4.797539120323021}, "data": {"theme": "SPORT", "nom": "Tennis Club du Fort de la Duch\u00e8re", "soustheme": "Equipement sportif"}}, {"coordinates": {"lat": 45.794821416403785, "lon": 4.822696466986232}, "data": {"theme": "SPORT", "nom": "Terrain de Sports de la Sauvag\u00e8re", "soustheme": "Equipement sportif"}}, {"coordinates": {"lat": 45.72701477654783, "lon": 4.760515591705975}, "data": {"theme": "SPORT", "nom": "Tennis Club des Aqueducs", "soustheme": "Equipement sportif"}}, {"coordinates": {"lat": 45.834750549371925, "lon": 4.775708653518062}, "data": {"theme": "SPORT", "nom": "Parc des Sports de Limonest", "soustheme": "Equipement sportif"}}, {"coordinates": {"lat": 45.782761450416544, "lon": 4.784383974126543}, "data": {"theme": "SPORT", "nom": "Maison des Sports d'Ecully", "soustheme": "Equipement sportif"}}, {"coordinates": {"lat": 45.7743832388152, "lon": 4.772234644768121}, "data": {"theme": "SPORT", "nom": "Gymnase Louis Chirpaz", "soustheme": "Equipement sportif"}}, {"coordinates": {"lat": 45.77858542240729, "lon": 4.76751186811744}, "data": {"theme": "SPORT", "nom": "Tennis d'Ecully", "soustheme": "Equipement sportif"}}, {"coordinates": {"lat": 45.86339128837996, "lon": 4.845427742428087}, "data": {"theme": "SPORT", "nom": "Stade Tissut", "soustheme": "Equipement sportif"}}, {"coordinates": {"lat": 45.75503961339422, "lon": 4.914249335372867}, "data": {"theme": "SPORT", "nom": "Stade S\u00e9verine", "soustheme": "Equipement sportif"}}, {"coordinates": {"lat": 45.770830825105186, "lon": 4.87648005718736}, "data": {"theme": "SPORT", "nom": "Salle de Sports des Gratte-Ciel", "soustheme": "Equipement sportif"}}, {"coordinates": {"lat": 45.76766433817806, "lon": 4.906604451635013}, "data": {"theme": "SPORT", "nom": "Stade Georges Lyvet", "soustheme": "Equipement sportif"}}, {"coordinates": {"lat": 45.817144589345304, "lon": 4.899023211788634}, "data": {"theme": "SPORT", "nom": "Gymnase Maria Casares", "soustheme": "Equipement sportif"}}, {"coordinates": {"lat": 45.703674897209495, "lon": 4.881861887243252}, "data": {"theme": "SPORT", "nom": "Boulodrome Robert Logodec", "soustheme": "Equipement sportif"}}, {"coordinates": {"lat": 45.69082037428183, "lon": 4.869465172726236}, "data": {"theme": "SPORT", "nom": "Maison des Sportifs Roger Couderc", "soustheme": "Equipement sportif"}}, {"coordinates": {"lat": 45.71840940412447, "lon": 4.886717931064807}, "data": {"theme": "SPORT", "nom": "Complexe Sportif Jean Guimier", "soustheme": "Equipement sportif"}}, {"coordinates": {"lat": 45.70696003237075, "lon": 4.866714379907484}, "data": {"theme": "SPORT", "nom": "Complexe Sportif Maurice M\u00e9trat", "soustheme": "Equipement sportif"}}, {"coordinates": {"lat": 45.70326498321548, "lon": 4.871253167582008}, "data": {"theme": "SPORT", "nom": "Espace Gabriel P\u00e9ri Salle Erik Satie", "soustheme": "Equipement sportif"}}, {"coordinates": {"lat": 45.68907875124927, "lon": 4.876639805422385}, "data": {"theme": "SPORT", "nom": "Gymnase Alain Colas", "soustheme": "Equipement sportif"}}, {"coordinates": {"lat": 45.69921905722539, "lon": 4.889687525770959}, "data": {"theme": "SPORT", "nom": "Gymnase du Charr\u00e9ard", "soustheme": "Equipement sportif"}}, {"coordinates": {"lat": 45.739726635674046, "lon": 4.905957139402594}, "data": {"theme": "SPORT", "nom": "Gymnase F\u00e9lix Charron", "soustheme": "Equipement sportif"}}, {"coordinates": {"lat": 45.755673187259184, "lon": 4.936735962657352}, "data": {"theme": "SPORT", "nom": "Centre Equestre Roosevelt", "soustheme": "Equipement sportif"}}, {"coordinates": {"lat": 45.83610722596317, "lon": 4.774291529749215}, "data": {"theme": "SPORT", "nom": "Stade de Limonest", "soustheme": "Equipement sportif"}}, {"coordinates": {"lat": 45.69586517806263, "lon": 4.8801058902840575}, "data": {"theme": "SPORT", "nom": "Gymnase du Lyc\u00e9e Jacques Brel", "soustheme": "Equipement sportif"}}, {"coordinates": {"lat": 45.72317944630999, "lon": 4.8583587492398}, "data": {"theme": "SPORT", "nom": "Gymnase Ernest Renan", "soustheme": "Equipement sportif"}}, {"coordinates": {"lat": 45.69432712449599, "lon": 4.8683484238667445}, "data": {"theme": "SPORT", "nom": "Gymnase Elsa Triolet", "soustheme": "Equipement sportif"}}, {"coordinates": {"lat": 45.839456396061, "lon": 4.769695573387639}, "data": {"theme": "SPORT", "nom": "Piste de Bi-Cross Skate de Limonest", "soustheme": "Equipement sportif"}}, {"coordinates": {"lat": 45.775079738528824, "lon": 4.973692657082243}, "data": {"theme": "SPORT", "nom": "Gymnase Charlie Chaplin", "soustheme": "Equipement sportif"}}, {"coordinates": {"lat": 45.84194523866633, "lon": 4.756518497565933}, "data": {"theme": "SPORT", "nom": "Tennis Club du Bois d'Ars", "soustheme": "Equipement sportif"}}, {"coordinates": {"lat": 45.76447008760476, "lon": 4.953132672377795}, "data": {"theme": "SPORT", "nom": "Gymnase Emile Zola", "soustheme": "Equipement sportif"}}, {"coordinates": {"lat": 45.74258760873828, "lon": 4.924349955475903}, "data": {"theme": "SPORT", "nom": "Gymnase Jean Moulin", "soustheme": "Equipement sportif"}}, {"coordinates": {"lat": 45.76598058513871, "lon": 4.954659352352447}, "data": {"theme": "SPORT", "nom": "Piscine d'\u00e9t\u00e9 de D\u00e9cines", "soustheme": "Piscine"}}, {"coordinates": {"lat": 45.73606362440593, "lon": 4.8250173690650975}, "data": {"theme": "SPORT", "nom": "Terrain de Sports Marcel Pagnol", "soustheme": "Equipement sportif"}}, {"coordinates": {"lat": 45.735158009745, "lon": 4.8242154377821045}, "data": {"theme": "SPORT", "nom": "Terrain de Sports Marcel Pagnol", "soustheme": "Equipement sportif"}}, {"coordinates": {"lat": 45.736502504992345, "lon": 4.831141418025822}, "data": {"theme": "SPORT", "nom": "Stade Chann\u00e9es", "soustheme": "Equipement sportif"}}, {"coordinates": {"lat": 45.74637375386208, "lon": 4.844435664650932}, "data": {"theme": "SPORT", "nom": "Terrain du Colombier", "soustheme": "Equipement sportif"}}, {"coordinates": {"lat": 45.81095057769202, "lon": 4.828315000744843}, "data": {"theme": "SPORT", "nom": "Stade des Combes", "soustheme": "Equipement sportif"}}, {"coordinates": {"lat": 45.810104512146104, "lon": 4.7954976967601155}, "data": {"theme": "SPORT", "nom": "Gymnase Communal de Saint-Didier-au-Mont-d'Or", "soustheme": "Equipement sportif"}}, {"coordinates": {"lat": 45.69317949238217, "lon": 4.8730937376080785}, "data": {"theme": "SPORT", "nom": "Complexe Sportif Auguste Delaune", "soustheme": "Equipement sportif"}}, {"coordinates": {"lat": 45.846481584957594, "lon": 4.854573899854811}, "data": {"theme": "SPORT", "nom": "Stade de la Sarra", "soustheme": "Equipement sportif"}}, {"coordinates": {"lat": 45.73504732442712, "lon": 4.8837762390682995}, "data": {"theme": "SPORT", "nom": "Espace Sportif Michel Saez", "soustheme": "Equipement sportif"}}, {"coordinates": {"lat": 45.75484633655262, "lon": 4.905131077431882}, "data": {"theme": "SPORT", "nom": "Stade Paul Kr\u00fcger", "soustheme": "Equipement sportif"}}, {"coordinates": {"lat": 45.724792201317484, "lon": 4.830396768477223}, "data": {"theme": "SPORT", "nom": "Piscine de Gerland", "soustheme": "Piscine"}}, {"coordinates": {"lat": 45.740524877884525, "lon": 4.840207391202645}, "data": {"theme": "SPORT", "nom": "Piscine Benjamin Delessert", "soustheme": "Piscine"}}, {"coordinates": {"lat": 45.78303651481046, "lon": 4.917112746529275}, "data": {"theme": "SPORT", "nom": "Maison des Jeunes et de la Culture", "soustheme": "Equipement sportif"}}, {"coordinates": {"lat": 45.80325961734287, "lon": 4.825721634015803}, "data": {"theme": "SPORT", "nom": "Terrain de Sports des 3 Gouttes", "soustheme": "Equipement sportif"}}, {"coordinates": {"lat": 45.770558683408126, "lon": 4.796284311454206}, "data": {"theme": "SPORT", "nom": "Piscine d'hiver de Vaise", "soustheme": "Piscine"}}, {"coordinates": {"lat": 45.69025770208826, "lon": 4.803124039274926}, "data": {"theme": "SPORT", "nom": "Gymnase Jean Giono", "soustheme": "Equipement sportif"}}, {"coordinates": {"lat": 45.84066240385389, "lon": 4.859404568497025}, "data": {"theme": "SPORT", "nom": "Stade Bernard Lacombe", "soustheme": "Equipement sportif"}}, {"coordinates": {"lat": 45.79161655271896, "lon": 5.050662043314244}, "data": {"theme": "SPORT", "nom": "Complexe Sportif Agora", "soustheme": "Equipement sportif"}}, {"coordinates": {"lat": 45.719812074618126, "lon": 4.826934451732736}, "data": {"theme": "SPORT", "nom": "Plaine de Jeux de Gerland", "soustheme": "Equipement sportif"}}, {"coordinates": {"lat": 45.72327543890144, "lon": 4.827235266718304}, "data": {"theme": "SPORT", "nom": "Stade Tola Vologe", "soustheme": "Equipement sportif"}}, {"coordinates": {"lat": 45.802316993716786, "lon": 5.038881173986394}, "data": {"theme": "SPORT", "nom": "Stade des Marais", "soustheme": "Equipement sportif"}}, {"coordinates": {"lat": 45.740939542266325, "lon": 4.927889268123432}, "data": {"theme": "SPORT", "nom": "Stade L\u00e9o Lagrange", "soustheme": "Equipement sportif"}}, {"coordinates": {"lat": 45.740851924421754, "lon": 4.927102409927884}, "data": {"theme": "SPORT", "nom": "Tennis Club Andr\u00e9 Wagner", "soustheme": "Equipement sportif"}}, {"coordinates": {"lat": 45.74037235410432, "lon": 4.927788736979994}, "data": {"theme": "SPORT", "nom": "Tennis Club Andr\u00e9 Wagner", "soustheme": "Equipement sportif"}}, {"coordinates": {"lat": 45.75657019482173, "lon": 4.907520936097004}, "data": {"theme": "SPORT", "nom": "Stade Jules Guesde", "soustheme": "Equipement sportif"}}, {"coordinates": {"lat": 45.75842066062419, "lon": 4.916413943515424}, "data": {"theme": "SPORT", "nom": "Stade L\u00e9on Duf\u00e8s", "soustheme": "Equipement sportif"}}, {"coordinates": {"lat": 45.766749701134806, "lon": 4.909803772479266}, "data": {"theme": "SPORT", "nom": "Piscine Etienne Gagnaire", "soustheme": "Piscine"}}, {"coordinates": {"lat": 45.77168271882866, "lon": 4.876170568220538}, "data": {"theme": "SPORT", "nom": "Piscine Andr\u00e9 Boulloche", "soustheme": "Piscine"}}, {"coordinates": {"lat": 45.76552409499164, "lon": 4.879692743579753}, "data": {"theme": "SPORT", "nom": "Piscine d'hiver des Gratte-Ciel", "soustheme": "Piscine"}}, {"coordinates": {"lat": 45.761120499240306, "lon": 4.899962293444207}, "data": {"theme": "SPORT", "nom": "Tennis Assoc Sportive Universitaire Lyonnaise", "soustheme": "Equipement sportif"}}, {"coordinates": {"lat": 45.76139476923829, "lon": 4.901107667031009}, "data": {"theme": "SPORT", "nom": "Tennis Assoc Sportive Universitaire Lyonnaise", "soustheme": "Equipement sportif"}}, {"coordinates": {"lat": 45.781861394624464, "lon": 4.861061886268431}, "data": {"theme": "SPORT", "nom": "Tennis Club de Lyon", "soustheme": "Equipement sportif"}}, {"coordinates": {"lat": 45.77896594871146, "lon": 4.905457010327307}, "data": {"theme": "SPORT", "nom": "Gymnase Jean Vilar", "soustheme": "Equipement sportif"}}, {"coordinates": {"lat": 45.814579164318886, "lon": 4.900722086441004}, "data": {"theme": "SPORT", "nom": "Stade Velette", "soustheme": "Equipement sportif"}}, {"coordinates": {"lat": 45.83902869455039, "lon": 4.909456315855325}, "data": {"theme": "SPORT", "nom": "Stand de Tir de Vancia", "soustheme": "Equipement sportif"}}, {"coordinates": {"lat": 45.80570767971561, "lon": 4.897759913959716}, "data": {"theme": "SPORT", "nom": "Tennis Club La Pape", "soustheme": "Equipement sportif"}}, {"coordinates": {"lat": 45.80632190877225, "lon": 4.902077415966867}, "data": {"theme": "SPORT", "nom": "Terrain de Sports de Rillieux-la-Pape", "soustheme": "Equipement sportif"}}, {"coordinates": {"lat": 45.84130671036084, "lon": 4.834346775452269}, "data": {"theme": "SPORT", "nom": "Stade de Rochetaill\u00e9e-sur-Sa\u00f4ne", "soustheme": "Equipement sportif"}}, {"coordinates": {"lat": 45.812588468379154, "lon": 4.827422807352694}, "data": {"theme": "SPORT", "nom": "Centre de Sports Equilibre", "soustheme": "Equipement sportif"}}, {"coordinates": {"lat": 45.69756257329663, "lon": 4.8971140241640025}, "data": {"theme": "SPORT", "nom": "Gymnase Max Barel", "soustheme": "Equipement sportif"}}, {"coordinates": {"lat": 45.72318221598667, "lon": 4.8663249773020905}, "data": {"theme": "SPORT", "nom": "Gymnase Pierre Albalate", "soustheme": "Equipement sportif"}}, {"coordinates": {"lat": 45.768936397450496, "lon": 4.90177119666969}, "data": {"theme": "SPORT", "nom": "Mur d'Escalade Eug\u00e8ne Varlin", "soustheme": "Equipement sportif"}}, {"coordinates": {"lat": 45.72707637847665, "lon": 4.859207483300108}, "data": {"theme": "SPORT", "nom": "Gymnase Tola Vologe", "soustheme": "Equipement sportif"}}, {"coordinates": {"lat": 45.76827244269653, "lon": 4.888359090954207}, "data": {"theme": "SPORT", "nom": "Salle Rapha\u00ebl De Barros", "soustheme": "Equipement sportif"}}, {"coordinates": {"lat": 45.69153920224348, "lon": 4.868594274688865}, "data": {"theme": "SPORT", "nom": "Stade Auguste Delaune", "soustheme": "Equipement sportif"}}, {"coordinates": {"lat": 45.783552970813204, "lon": 4.710644209562853}, "data": {"theme": "SPORT", "nom": "Complexe Sportif de Marcy l'Etoile", "soustheme": "Equipement sportif"}}, {"coordinates": {"lat": 45.785979093907024, "lon": 4.7128399294031516}, "data": {"theme": "SPORT", "nom": "Stade Grand Croix", "soustheme": "Equipement sportif"}}, {"coordinates": {"lat": 45.7836007827681, "lon": 4.704277236738155}, "data": {"theme": "SPORT", "nom": "Tennis Club de Marcy l'Etoile", "soustheme": "Equipement sportif"}}, {"coordinates": {"lat": 45.74806664126405, "lon": 4.91215987427848}, "data": {"theme": "SPORT", "nom": "Gymnase Louis Pradel", "soustheme": "Equipement sportif"}}, {"coordinates": {"lat": 45.76528714973619, "lon": 4.954112393811213}, "data": {"theme": "SPORT", "nom": "Parc des Sports Raymond Troussier", "soustheme": "Equipement sportif"}}, {"coordinates": {"lat": 45.74351123903451, "lon": 4.9113614503067}, "data": {"theme": "SPORT", "nom": "Gymnase Tola Vologe", "soustheme": "Equipement sportif"}}, {"coordinates": {"lat": 45.72749942278582, "lon": 4.806506393279306}, "data": {"theme": "SPORT", "nom": "Gymnase Andr\u00e9 Malraux", "soustheme": "Equipement sportif"}}, {"coordinates": {"lat": 45.68360960584307, "lon": 4.831921533069383}, "data": {"theme": "SPORT", "nom": "Stade du Broteau", "soustheme": "Equipement sportif"}}, {"coordinates": {"lat": 45.74231546199094, "lon": 4.925941648506635}, "data": {"theme": "SPORT", "nom": "Terrain des Lumi\u00e8res", "soustheme": "Equipement sportif"}}, {"coordinates": {"lat": 45.74446119798234, "lon": 4.910495320366322}, "data": {"theme": "SPORT", "nom": "Salle d'Escrime", "soustheme": "Equipement sportif"}}, {"coordinates": {"lat": 45.73488631147888, "lon": 4.885223358567089}, "data": {"theme": "SPORT", "nom": "Gymnase Genton", "soustheme": "Equipement sportif"}}, {"coordinates": {"lat": 45.80256139517633, "lon": 4.868301553289049}, "data": {"theme": "SPORT", "nom": "Complexe Sportif de la Terre des Li\u00e8vres", "soustheme": "Equipement sportif"}}, {"coordinates": {"lat": 45.80055059448232, "lon": 4.856067649329808}, "data": {"theme": "SPORT", "nom": "Gymnase Andr\u00e9 Cuzin", "soustheme": "Equipement sportif"}}, {"coordinates": {"lat": 45.793504595158915, "lon": 4.843245799496395}, "data": {"theme": "SPORT", "nom": "Boulodrome Roger Schelle", "soustheme": "Equipement sportif"}}, {"coordinates": {"lat": 45.72417605173621, "lon": 4.881116415388375}, "data": {"theme": "SPORT", "nom": "Stade Georges Vuillermet", "soustheme": "Equipement sportif"}}, {"coordinates": {"lat": 45.7297007363048, "lon": 4.877691744223845}, "data": {"theme": "SPORT", "nom": "Stade Pierre Bavozet", "soustheme": "Equipement sportif"}}, {"coordinates": {"lat": 45.734840884682235, "lon": 4.8791579479201}, "data": {"theme": "SPORT", "nom": "Stade Morat", "soustheme": "Equipement sportif"}}, {"coordinates": {"lat": 45.73747999840074, "lon": 4.851654811797755}, "data": {"theme": "SPORT", "nom": "Gymnase Croix Barret", "soustheme": "Equipement sportif"}}, {"coordinates": {"lat": 45.689290340656605, "lon": 4.785228507218173}, "data": {"theme": "SPORT", "nom": "Complexe Sportif Beauregard", "soustheme": "Equipement sportif"}}, {"coordinates": {"lat": 45.69321404755589, "lon": 4.789684606482021}, "data": {"theme": "SPORT", "nom": "Tennis de l'Olympique de Saint-Genis-Laval", "soustheme": "Equipement sportif"}}, {"coordinates": {"lat": 45.693731129906915, "lon": 4.797629250279248}, "data": {"theme": "SPORT", "nom": "Gymnase Albert Mouton", "soustheme": "Equipement sportif"}}, {"coordinates": {"lat": 45.6834808862604, "lon": 4.790971586496717}, "data": {"theme": "SPORT", "nom": "Gymnase d'Aubar\u00e8de", "soustheme": "Equipement sportif"}}, {"coordinates": {"lat": 45.68343266145117, "lon": 4.788628762951009}, "data": {"theme": "SPORT", "nom": "Stade des Barolles", "soustheme": "Equipement sportif"}}, {"coordinates": {"lat": 45.69110844139808, "lon": 4.804817762371823}, "data": {"theme": "SPORT", "nom": "Gymnase Guilloux", "soustheme": "Equipement sportif"}}, {"coordinates": {"lat": 45.80196956787676, "lon": 5.036833002483493}, "data": {"theme": "SPORT", "nom": "Terrain de Bi-cross de Jonage", "soustheme": "Equipement sportif"}}, {"coordinates": {"lat": 45.800581357410586, "lon": 5.028723818770897}, "data": {"theme": "SPORT", "nom": "A\u00e9romod\u00e9lisme de Jonage", "soustheme": "Equipement sportif"}}, {"coordinates": {"lat": 45.790476323515456, "lon": 5.03907360897278}, "data": {"theme": "SPORT", "nom": "Salle de Sports Lionel Terray", "soustheme": "Equipement sportif"}}, {"coordinates": {"lat": 45.88298261502643, "lon": 4.8727656939251105}, "data": {"theme": "SPORT", "nom": "Stade de Football Union Sportive de Montanay", "soustheme": "Equipement sportif"}}, {"coordinates": {"lat": 45.71849992588922, "lon": 4.808763979796952}, "data": {"theme": "SPORT", "nom": "Piscine et Sauna d'Oullins", "soustheme": "Piscine"}}, {"coordinates": {"lat": 45.7184903333494, "lon": 4.818642080941938}, "data": {"theme": "SPORT", "nom": "Gymnase Jean Jaur\u00e8s", "soustheme": "Equipement sportif"}}, {"coordinates": {"lat": 45.70989004246641, "lon": 4.815128274001184}, "data": {"theme": "SPORT", "nom": "Gymnase Maurice Herzog", "soustheme": "Equipement sportif"}}, {"coordinates": {"lat": 45.71473677414957, "lon": 4.806748708235878}, "data": {"theme": "SPORT", "nom": "Gymnase Moreaud", "soustheme": "Equipement sportif"}}, {"coordinates": {"lat": 45.71559365035776, "lon": 4.806266394448816}, "data": {"theme": "SPORT", "nom": "Salle des Sports Pierre Derruaz", "soustheme": "Equipement sportif"}}, {"coordinates": {"lat": 45.77181187392269, "lon": 4.820002662957698}, "data": {"theme": "SPORT", "nom": "Stade Roger Duplat", "soustheme": "Equipement sportif"}}, {"coordinates": {"lat": 45.79318012960849, "lon": 4.84138505062528}, "data": {"theme": "SPORT", "nom": "Complexe Sportif Pierre Bourdan", "soustheme": "Equipement sportif"}}, {"coordinates": {"lat": 45.7932074270929, "lon": 4.839810390429429}, "data": {"theme": "SPORT", "nom": "Espace Sportif Lucien Lachaise", "soustheme": "Equipement sportif"}}, {"coordinates": {"lat": 45.796127314426954, "lon": 4.824656292750671}, "data": {"theme": "SPORT", "nom": "Terrain de Sports Mouriquand", "soustheme": "Equipement sportif"}}, {"coordinates": {"lat": 45.825068691204166, "lon": 4.812004827144041}, "data": {"theme": "SPORT", "nom": "Tennis de la Bussi\u00e8re", "soustheme": "Equipement sportif"}}, {"coordinates": {"lat": 45.704440069560505, "lon": 4.8823405896115055}, "data": {"theme": "SPORT", "nom": "Salle d'Arts Martiaux de V\u00e9nissieux", "soustheme": "Equipement sportif"}}, {"coordinates": {"lat": 45.696775894728304, "lon": 4.8935185159587675}, "data": {"theme": "SPORT", "nom": "Stade Laurent Gu\u00e9rin", "soustheme": "Equipement sportif"}}, {"coordinates": {"lat": 45.77183102004823, "lon": 4.81991504211966}, "data": {"theme": "SPORT", "nom": "Gymnase Jean G\u00e9n\u00e9ty", "soustheme": "Equipement sportif"}}, {"coordinates": {"lat": 45.7693143667766, "lon": 4.820544298382584}, "data": {"theme": "SPORT", "nom": "Gymnase G\u00e9n\u00e9ral Giraud", "soustheme": "Equipement sportif"}}, {"coordinates": {"lat": 45.76915987069664, "lon": 4.819622640726045}, "data": {"theme": "SPORT", "nom": "Boulodrome de l'AS Communaut\u00e9 Urbaine de Lyon", "soustheme": "Equipement sportif"}}, {"coordinates": {"lat": 45.76964376219351, "lon": 4.818917207183566}, "data": {"theme": "SPORT", "nom": "Tennis Club Lyon 1", "soustheme": "Equipement sportif"}}, {"coordinates": {"lat": 45.69450051727044, "lon": 4.8734505166670266}, "data": {"theme": "SPORT", "nom": "Piscine Auguste Delaune", "soustheme": "Piscine"}}, {"coordinates": {"lat": 45.71832859172816, "lon": 4.858800831152574}, "data": {"theme": "SPORT", "nom": "Piscine Intercommunale", "soustheme": "Piscine"}}, {"coordinates": {"lat": 45.6515997070164, "lon": 4.794325950780043}, "data": {"theme": "SPORT", "nom": "Salle des Sports de Charly", "soustheme": "Equipement sportif"}}, {"coordinates": {"lat": 45.65011330926562, "lon": 4.7909349604166716}, "data": {"theme": "SPORT", "nom": "Stade Raymond Bourette", "soustheme": "Equipement sportif"}}, {"coordinates": {"lat": 45.81674032018678, "lon": 4.847620008829241}, "data": {"theme": "SPORT", "nom": "Stade Edmond Cr\u00e9tin", "soustheme": "Equipement sportif"}}, {"coordinates": {"lat": 45.74622561156486, "lon": 4.8630827532243055}, "data": {"theme": "SPORT", "nom": "Piscine de Monplaisir", "soustheme": "Piscine"}}, {"coordinates": {"lat": 45.73040749211245, "lon": 4.886286753869896}, "data": {"theme": "SPORT", "nom": "Piscine d'\u00e9t\u00e9 Jean Mermoz", "soustheme": "Piscine"}}, {"coordinates": {"lat": 45.74614181637355, "lon": 4.860099931725334}, "data": {"theme": "SPORT", "nom": "Terrain de Sports Colbert", "soustheme": "Equipement sportif"}}, {"coordinates": {"lat": 45.74599883823866, "lon": 4.868547918558344}, "data": {"theme": "SPORT", "nom": "Gymnase Marcel Dargent", "soustheme": "Equipement sportif"}}, {"coordinates": {"lat": 45.72676437508912, "lon": 4.883845753276425}, "data": {"theme": "SPORT", "nom": "Terrain de Sports Grignard", "soustheme": "Equipement sportif"}}, {"coordinates": {"lat": 45.73318860206243, "lon": 4.8707042617294976}, "data": {"theme": "SPORT", "nom": "Gymnase John Kennedy", "soustheme": "Equipement sportif"}}, {"coordinates": {"lat": 45.72649188779962, "lon": 4.8738187917560705}, "data": {"theme": "SPORT", "nom": "Gymnase Longchambon", "soustheme": "Equipement sportif"}}, {"coordinates": {"lat": 45.73214195924684, "lon": 4.871611857376472}, "data": {"theme": "SPORT", "nom": "Salle Nouvelle Renaissance Lyonnaise", "soustheme": "Equipement sportif"}}, {"coordinates": {"lat": 45.7324974796162, "lon": 4.856743006048107}, "data": {"theme": "SPORT", "nom": "Terrain de Sports Dumont", "soustheme": "Equipement sportif"}}, {"coordinates": {"lat": 45.729815693547216, "lon": 4.879886449306732}, "data": {"theme": "SPORT", "nom": "Jeux de Boules des Travailleurs", "soustheme": "Equipement sportif"}}, {"coordinates": {"lat": 45.72908631582076, "lon": 4.862113144716131}, "data": {"theme": "SPORT", "nom": "Salle de Danse et Gymnastique de Pressens\u00e9", "soustheme": "Equipement sportif"}}, {"coordinates": {"lat": 45.722859742407614, "lon": 4.866896035007372}, "data": {"theme": "SPORT", "nom": "Stade Pierre Albalate", "soustheme": "Equipement sportif"}}, {"coordinates": {"lat": 45.720781391660346, "lon": 4.876439564815195}, "data": {"theme": "SPORT", "nom": "Stade de la Plaine de Jeux des Etats-Unis", "soustheme": "Equipement sportif"}}, {"coordinates": {"lat": 45.70664663156488, "lon": 4.868223800702482}, "data": {"theme": "SPORT", "nom": "Stade Rh\u00f4ne-Poulenc", "soustheme": "Equipement sportif"}}, {"coordinates": {"lat": 45.726784982998154, "lon": 4.858544735600251}, "data": {"theme": "SPORT", "nom": "Tennis A L Moulin \u00e0 Vent", "soustheme": "Equipement sportif"}}, {"coordinates": {"lat": 45.79124111329684, "lon": 4.798623705709566}, "data": {"theme": "SPORT", "nom": "Gymnase de la Duch\u00e8re", "soustheme": "Equipement sportif"}}, {"coordinates": {"lat": 45.78229251359224, "lon": 4.793799747419829}, "data": {"theme": "SPORT", "nom": "Gymnase des An\u00e9mones", "soustheme": "Equipement sportif"}}, {"coordinates": {"lat": 45.64853990912493, "lon": 4.815614245005036}, "data": {"theme": "SPORT", "nom": "Salle des Sports de Vernaison", "soustheme": "Equipement sportif"}}, {"coordinates": {"lat": 45.70938078512767, "lon": 4.8159284719307305}, "data": {"theme": "SPORT", "nom": "Stade de la Claveli\u00e8re", "soustheme": "Equipement sportif"}}, {"coordinates": {"lat": 45.795888138015385, "lon": 4.82425105733706}, "data": {"theme": "SPORT", "nom": "Gymnase Sauvag\u00e8re Saint Rambert", "soustheme": "Equipement sportif"}}, {"coordinates": {"lat": 45.648327254838904, "lon": 4.813604479645013}, "data": {"theme": "SPORT", "nom": "Salle Les Arcades", "soustheme": "Equipement sportif"}}, {"coordinates": {"lat": 45.729893256154675, "lon": 4.860744686617545}, "data": {"theme": "SPORT", "nom": "Gymnase Nelson Paillou", "soustheme": "Equipement sportif"}}, {"coordinates": {"lat": 45.80723897762358, "lon": 4.849179533782329}, "data": {"theme": "SPORT", "nom": "Gymnase Andr\u00e9 Lassagne", "soustheme": "Equipement sportif"}}, {"coordinates": {"lat": 45.72198308033075, "lon": 4.785533487676423}, "data": {"theme": "SPORT", "nom": "Stade du Merlo", "soustheme": "Equipement sportif"}}, {"coordinates": {"lat": 45.715675052964, "lon": 4.7875884510763225}, "data": {"theme": "SPORT", "nom": "Tennis Club d'Oullins", "soustheme": "Equipement sportif"}}, {"coordinates": {"lat": 45.71570255698409, "lon": 4.81969521243247}, "data": {"theme": "SPORT", "nom": "Terrain de Football et Basket-Ball de la Saulaie", "soustheme": "Equipement sportif"}}, {"coordinates": {"lat": 45.69650547451272, "lon": 4.853898844216815}, "data": {"theme": "SPORT", "nom": "Centre Sportif L\u00e9o Lagrange", "soustheme": "Equipement sportif"}}, {"coordinates": {"lat": 45.68970229944132, "lon": 4.859538113636427}, "data": {"theme": "SPORT", "nom": "Gymnase Frison Roche", "soustheme": "Equipement sportif"}}, {"coordinates": {"lat": 45.789062319372, "lon": 4.8444801041560295}, "data": {"theme": "SPORT", "nom": "Salle des Sports Charles Senard", "soustheme": "Equipement sportif"}}, {"coordinates": {"lat": 45.72948164607814, "lon": 4.863080982296613}, "data": {"theme": "SPORT", "nom": "Jeux de Boules Francis de Pressens\u00e9", "soustheme": "Equipement sportif"}}, {"coordinates": {"lat": 45.79312497130512, "lon": 4.836727477686485}, "data": {"theme": "SPORT", "nom": "Stade Henri Cochet", "soustheme": "Equipement sportif"}}, {"coordinates": {"lat": 45.79077964119253, "lon": 4.822133917712021}, "data": {"theme": "SPORT", "nom": "Cercle de l'Aviron de Lyon", "soustheme": "Piscine"}}, {"coordinates": {"lat": 45.797362813355534, "lon": 4.837541889304844}, "data": {"theme": "SPORT", "nom": "Piscine de l'Union Nautique de Lyon", "soustheme": "Piscine"}}, {"coordinates": {"lat": 45.65278287047266, "lon": 4.794746250186978}, "data": {"theme": "SPORT", "nom": "Club Bouliste de Charly", "soustheme": "Equipement sportif"}}, {"coordinates": {"lat": 45.7807814371907, "lon": 4.83747375663541}, "data": {"theme": "SPORT", "nom": "Terrain de Sports Artaud", "soustheme": "Equipement sportif"}}, {"coordinates": {"lat": 45.716185354317844, "lon": 4.789491535691048}, "data": {"theme": "SPORT", "nom": "Terrain de Sports du Golf", "soustheme": "Equipement sportif"}}, {"coordinates": {"lat": 45.70430594268657, "lon": 4.859307372820685}, "data": {"theme": "SPORT", "nom": "Boulodrome de Saint-Fons", "soustheme": "Equipement sportif"}}, {"coordinates": {"lat": 45.76859942665571, "lon": 4.830630431449986}, "data": {"theme": "SPORT", "nom": "Salle de Tennis de Table Rameau", "soustheme": "Equipement sportif"}}, {"coordinates": {"lat": 45.77017325262897, "lon": 4.825990053991747}, "data": {"theme": "SPORT", "nom": "Stand de Tir Flesselles", "soustheme": "Equipement sportif"}}, {"coordinates": {"lat": 45.778428291130105, "lon": 4.826820956354383}, "data": {"theme": "SPORT", "nom": "Boulodrome du Clos des Canuts", "soustheme": "Equipement sportif"}}, {"coordinates": {"lat": 45.78409072561439, "lon": 4.822881668604628}, "data": {"theme": "SPORT", "nom": "Gymnase des Pompiers Croix-Rousse", "soustheme": "Equipement sportif"}}, {"coordinates": {"lat": 45.78071286620834, "lon": 4.826690605379019}, "data": {"theme": "SPORT", "nom": "Gymnase H\u00e9non", "soustheme": "Equipement sportif"}}, {"coordinates": {"lat": 45.77876468669307, "lon": 4.836970770008551}, "data": {"theme": "SPORT", "nom": "Gymnase Maurice Sceve", "soustheme": "Equipement sportif"}}, {"coordinates": {"lat": 45.77320796629723, "lon": 4.820803702188087}, "data": {"theme": "SPORT", "nom": "Jeux de Boules du Clos Jouve", "soustheme": "Equipement sportif"}}, {"coordinates": {"lat": 45.78051506297684, "lon": 4.834175057098556}, "data": {"theme": "SPORT", "nom": "Salle d'Halt\u00e9rophilie Belfort", "soustheme": "Equipement sportif"}}, {"coordinates": {"lat": 45.78151154993133, "lon": 4.823256173412854}, "data": {"theme": "SPORT", "nom": "Stade des Chartreux", "soustheme": "Equipement sportif"}}, {"coordinates": {"lat": 45.78261520232277, "lon": 4.8217435688283246}, "data": {"theme": "SPORT", "nom": "Stade Gr\u00e9gory Coupet", "soustheme": "Equipement sportif"}}, {"coordinates": {"lat": 45.77771279901823, "lon": 4.821640810175899}, "data": {"theme": "SPORT", "nom": "Tennis Club Croix-Rousse", "soustheme": "Equipement sportif"}}, {"coordinates": {"lat": 45.777184880663896, "lon": 4.818686130475142}, "data": {"theme": "SPORT", "nom": "Tennis Francis Popy", "soustheme": "Equipement sportif"}}, {"coordinates": {"lat": 45.729961639953046, "lon": 4.861479580512816}, "data": {"theme": "SPORT", "nom": "Terrain de Sports Pressens\u00e9", "soustheme": "Equipement sportif"}}, {"coordinates": {"lat": 45.728629889044036, "lon": 4.861879988983531}, "data": {"theme": "SPORT", "nom": "Terrain de Proximit\u00e9 de Pressens\u00e9", "soustheme": "Equipement sportif"}}, {"coordinates": {"lat": 45.73469139359986, "lon": 4.8543647599917765}, "data": {"theme": "SPORT", "nom": "Terrain de Sports Philibert Delorme", "soustheme": "Equipement sportif"}}, {"coordinates": {"lat": 45.74641341584121, "lon": 4.863874837631203}, "data": {"theme": "SPORT", "nom": "Terrain de Sports Lumi\u00e8re", "soustheme": "Equipement sportif"}}, {"coordinates": {"lat": 45.72639394964228, "lon": 4.876712592515925}, "data": {"theme": "SPORT", "nom": "Terrain de Sports Vallensaut", "soustheme": "Equipement sportif"}}, {"coordinates": {"lat": 45.728944310222595, "lon": 4.881102080023959}, "data": {"theme": "SPORT", "nom": "Terrain de Proximite Michaud", "soustheme": "Equipement sportif"}}, {"coordinates": {"lat": 45.72774581644041, "lon": 4.8508124431987865}, "data": {"theme": "SPORT", "nom": "Stade du Clos Layat", "soustheme": "Equipement sportif"}}, {"coordinates": {"lat": 45.72643454340678, "lon": 4.865963907120424}, "data": {"theme": "SPORT", "nom": "Terrain de Sports Viviani", "soustheme": "Equipement sportif"}}, {"coordinates": {"lat": 45.84950077225283, "lon": 4.832970196223255}, "data": {"theme": "SPORT", "nom": "Tennis de Couzon-au-Mont d'Or", "soustheme": "Equipement sportif"}}, {"coordinates": {"lat": 45.77556973111218, "lon": 4.82544941013854}, "data": {"theme": "SPORT", "nom": "Terrain de Sports Denfert-Rochereau", "soustheme": "Equipement sportif"}}, {"coordinates": {"lat": 45.774026373762815, "lon": 4.8034665857437755}, "data": {"theme": "SPORT", "nom": "Gymnase Ferber", "soustheme": "Equipement sportif"}}, {"coordinates": {"lat": 45.777141342540936, "lon": 4.802228597617723}, "data": {"theme": "SPORT", "nom": "Gymnase Tissot", "soustheme": "Equipement sportif"}}, {"coordinates": {"lat": 45.799614925013415, "lon": 4.826074763002039}, "data": {"theme": "SPORT", "nom": "Gymnase Matthias Favier", "soustheme": "Equipement sportif"}}, {"coordinates": {"lat": 45.75936829210073, "lon": 4.810834869866438}, "data": {"theme": "SPORT", "nom": "Jeux de Boules de la Favorite", "soustheme": "Equipement sportif"}}, {"coordinates": {"lat": 45.80364540385911, "lon": 4.835447889234187}, "data": {"theme": "SPORT", "nom": "Mur d'Escalade Ext\u00e9rieur Charles Porcher", "soustheme": "Equipement sportif"}}, {"coordinates": {"lat": 45.77385468434286, "lon": 4.7962617287785125}, "data": {"theme": "SPORT", "nom": "Salle de Tennis de Table du Bourdonnais", "soustheme": "Equipement sportif"}}, {"coordinates": {"lat": 45.763912171269645, "lon": 4.798805698649131}, "data": {"theme": "SPORT", "nom": "Salles Sp\u00e9cialis\u00e9es Rhodia", "soustheme": "Equipement sportif"}}, {"coordinates": {"lat": 45.76435183307802, "lon": 4.797651650364224}, "data": {"theme": "SPORT", "nom": "Stade Rhodia", "soustheme": "Equipement sportif"}}, {"coordinates": {"lat": 45.78745185845107, "lon": 4.7971866020022675}, "data": {"theme": "SPORT", "nom": "Stade de la Duch\u00e8re", "soustheme": "Equipement sportif"}}, {"coordinates": {"lat": 45.7423479100428, "lon": 4.968824876338292}, "data": {"theme": "SPORT", "nom": "Maison des Sports de Chassieu", "soustheme": "Equipement sportif"}}, {"coordinates": {"lat": 45.74219136856064, "lon": 4.969182721524671}, "data": {"theme": "SPORT", "nom": "Maison des Sports de Chassieu", "soustheme": "Equipement sportif"}}, {"coordinates": {"lat": 45.84774994782281, "lon": 4.832507124973369}, "data": {"theme": "SPORT", "nom": "Stade Joanny Dufresse", "soustheme": "Equipement sportif"}}, {"coordinates": {"lat": 45.85282656072403, "lon": 4.824837663232299}, "data": {"theme": "SPORT", "nom": "Stand de Tir de l'Olympique Lyonnais", "soustheme": "Equipement sportif"}}, {"coordinates": {"lat": 45.80014830181876, "lon": 4.721384580518112}, "data": {"theme": "SPORT", "nom": "Terrain Base Ball de la Tour", "soustheme": "Equipement sportif"}}, {"coordinates": {"lat": 45.70778489655676, "lon": 4.863355830637983}, "data": {"theme": "SPORT", "nom": "Palais des Sports", "soustheme": "Equipement sportif"}}, {"coordinates": {"lat": 45.70748833638743, "lon": 4.863975881543238}, "data": {"theme": "SPORT", "nom": "Stade de Saint-Fons", "soustheme": "Equipement sportif"}}, {"coordinates": {"lat": 45.83285189908995, "lon": 4.855453206996822}, "data": {"theme": "SPORT", "nom": "Stade des Ronzi\u00e8res", "soustheme": "Equipement sportif"}}, {"coordinates": {"lat": 45.83415446277893, "lon": 4.855418863408482}, "data": {"theme": "SPORT", "nom": "Tennis Club des Ronzi\u00e8res", "soustheme": "Equipement sportif"}}, {"coordinates": {"lat": 45.73309492265485, "lon": 4.7359178839244676}, "data": {"theme": "SPORT", "nom": "Centre Equestre du Findez", "soustheme": "Equipement sportif"}}, {"coordinates": {"lat": 45.73401689251586, "lon": 4.73100938345438}, "data": {"theme": "SPORT", "nom": "Poney Club du Findez", "soustheme": "Equipement sportif"}}, {"coordinates": {"lat": 45.73136705212523, "lon": 4.771749832393053}, "data": {"theme": "SPORT", "nom": "Complexe Sportif de Francheville", "soustheme": "Equipement sportif"}}, {"coordinates": {"lat": 45.73540340813205, "lon": 4.749250817023635}, "data": {"theme": "SPORT", "nom": "Tennis des Arpini\u00e8res", "soustheme": "Equipement sportif"}}, {"coordinates": {"lat": 45.74932818561023, "lon": 4.905164855924601}, "data": {"theme": "SPORT", "nom": "Gymnase Andr\u00e9 Boulloche", "soustheme": "Equipement sportif"}}, {"coordinates": {"lat": 45.70183519408584, "lon": 4.854455493067155}, "data": {"theme": "SPORT", "nom": "Stade de la Cressonni\u00e8re", "soustheme": "Equipement sportif"}}, {"coordinates": {"lat": 45.7062586760977, "lon": 4.843300509863189}, "data": {"theme": "SPORT", "nom": "Maison de l'Eau", "soustheme": "Piscine"}}, {"coordinates": {"lat": 45.883365535539774, "lon": 4.81170016303914}, "data": {"theme": "SPORT", "nom": "Stade Jean Lacaze", "soustheme": "Equipement sportif"}}, {"coordinates": {"lat": 45.63580494759903, "lon": 4.837334572619771}, "data": {"theme": "SPORT", "nom": "Stade de Solaize", "soustheme": "Equipement sportif"}}, {"coordinates": {"lat": 45.63402133581491, "lon": 4.837320867741681}, "data": {"theme": "SPORT", "nom": "Tennis Club de Solaize", "soustheme": "Equipement sportif"}}, {"coordinates": {"lat": 45.644181083417386, "lon": 4.81766322409329}, "data": {"theme": "SPORT", "nom": "Stade de Vernaison", "soustheme": "Equipement sportif"}}, {"coordinates": {"lat": 45.78078190766002, "lon": 4.819226749575091}, "data": {"theme": "SPORT", "nom": "Stade Ren\u00e9 Baillieu", "soustheme": "Equipement sportif"}}, {"coordinates": {"lat": 45.78138669167778, "lon": 4.821776612404108}, "data": {"theme": "SPORT", "nom": "Piscine d'hiver Saint-Exup\u00e9ry", "soustheme": "Piscine"}}, {"coordinates": {"lat": 45.76745718886621, "lon": 4.862214244218347}, "data": {"theme": "SPORT", "nom": "Gymnase Louis Pradel", "soustheme": "Equipement sportif"}}, {"coordinates": {"lat": 45.76862480002169, "lon": 4.8535693844903545}, "data": {"theme": "SPORT", "nom": "Gymnase Viricel", "soustheme": "Equipement sportif"}}, {"coordinates": {"lat": 45.74511234908709, "lon": 4.81707858583166}, "data": {"theme": "SPORT", "nom": "Stade Sonny Anderson", "soustheme": "Equipement sportif"}}, {"coordinates": {"lat": 45.72410053868933, "lon": 4.8243121958900845}, "data": {"theme": "SPORT", "nom": "Skate Parc de Gerland", "soustheme": "Equipement sportif"}}, {"coordinates": {"lat": 45.82238345646271, "lon": 4.907861276020742}, "data": {"theme": "SPORT", "nom": "Gymnase le Cosec", "soustheme": "Equipement sportif"}}, {"coordinates": {"lat": 45.67075144710312, "lon": 4.860827601174256}, "data": {"theme": "SPORT", "nom": "Gymnase Polyvalent de Feyzin", "soustheme": "Equipement sportif"}}, {"coordinates": {"lat": 45.568681239407155, "lon": 4.795382752343792}, "data": {"theme": "SPORT", "nom": "Gymnase de Bans", "soustheme": "Equipement sportif"}}, {"coordinates": {"lat": 45.59059343086638, "lon": 4.772235850211102}, "data": {"theme": "SPORT", "nom": "Centre Nautique", "soustheme": "Piscine"}}, {"coordinates": {"lat": 45.6009073328088, "lon": 4.771698216602084}, "data": {"theme": "SPORT", "nom": "Gymnase Jacques Anquetil", "soustheme": "Equipement sportif"}}, {"coordinates": {"lat": 45.59975205823016, "lon": 4.77124224936875}, "data": {"theme": "SPORT", "nom": "Stade de la Lib\u00e9ration", "soustheme": "Equipement sportif"}}, {"coordinates": {"lat": 45.59927711200338, "lon": 4.772062708474663}, "data": {"theme": "SPORT", "nom": "Palais des Sports Salvador Allende", "soustheme": "Equipement sportif"}}, {"coordinates": {"lat": 45.70047081098533, "lon": 4.8706743414183045}, "data": {"theme": "SPORT", "nom": "Gymnase Colette Besson", "soustheme": "Equipement sportif"}}, {"coordinates": {"lat": 45.69591763160311, "lon": 4.891505546567366}, "data": {"theme": "SPORT", "nom": "Gymnase Micheline  Ostermeyer", "soustheme": "Equipement sportif"}}, {"coordinates": {"lat": 45.76829934208153, "lon": 4.83074821646121}, "data": {"theme": "SPORT", "nom": "Acad\u00e9mie de Billard", "soustheme": "Equipement sportif"}}, {"coordinates": {"lat": 45.761082825473444, "lon": 4.771355273811645}, "data": {"theme": "SPORT", "nom": "Stade Bouliste de Tassin", "soustheme": "Equipement sportif"}}, {"coordinates": {"lat": 45.63393522817268, "lon": 4.836742589702181}, "data": {"theme": "SPORT", "nom": "Boulodrome de solaize", "soustheme": "Equipement sportif"}}, {"coordinates": {"lat": 45.63517268102195, "lon": 4.839616690625377}, "data": {"theme": "SPORT", "nom": "Salle Polyvalente de Solaize", "soustheme": "Equipement sportif"}}, {"coordinates": {"lat": 45.72703577096355, "lon": 4.815316629906177}, "data": {"theme": "SPORT", "nom": "Aire de Jeux Multisports", "soustheme": "Equipement sportif"}}, {"coordinates": {"lat": 45.8770956508676, "lon": 4.847913520617135}, "data": {"theme": "SPORT", "nom": "Gymnase du Lyc\u00e9e Rosa Parks", "soustheme": "Equipement sportif"}}, {"coordinates": {"lat": 45.65302324821211, "lon": 4.794072985372434}, "data": {"theme": "SPORT", "nom": "Salle Polyvalente de Charly", "soustheme": "Equipement sportif"}}, {"coordinates": {"lat": 45.76936101506038, "lon": 5.013261586981471}, "data": {"theme": "SPORT", "nom": "Centre Nautique Les Vagues", "soustheme": "Piscine"}}, {"coordinates": {"lat": 45.74341776277115, "lon": 4.724853863382454}, "data": {"theme": "SPORT", "nom": "Salle des Arts Martiaux", "soustheme": "Equipement sportif"}}, {"coordinates": {"lat": 45.604647929752744, "lon": 4.777197838362539}, "data": {"theme": "SPORT", "nom": "Stade Planchon", "soustheme": "Equipement sportif"}}, {"coordinates": {"lat": 45.608294707213844, "lon": 4.785507091915774}, "data": {"theme": "SPORT", "nom": "Stade Jean Zay", "soustheme": "Equipement sportif"}}, {"coordinates": {"lat": 45.607691703710096, "lon": 4.783932415044626}, "data": {"theme": "SPORT", "nom": "Espace Michel Favier", "soustheme": "Equipement sportif"}}, {"coordinates": {"lat": 45.60722584767254, "lon": 4.783934907265061}, "data": {"theme": "SPORT", "nom": "Gymnase Henri Colas", "soustheme": "Equipement sportif"}}, {"coordinates": {"lat": 45.61297836738403, "lon": 4.79994726119085}, "data": {"theme": "SPORT", "nom": "Espace Nautique Lucien Bonnard", "soustheme": "Piscine"}}, {"coordinates": {"lat": 45.74902139204961, "lon": 4.894383575876942}, "data": {"theme": "SPORT", "nom": "Jeux de Boules Chambovet", "soustheme": "Equipement sportif"}}, {"coordinates": {"lat": 45.79629371214732, "lon": 4.779402550922927}, "data": {"theme": "SPORT", "nom": "Espace Loisir du Coulouvrier", "soustheme": "Equipement sportif"}}, {"coordinates": {"lat": 45.83455342462756, "lon": 4.774872723015825}, "data": {"theme": "SPORT", "nom": "Gymnase de Limonest", "soustheme": "Equipement sportif"}}, {"coordinates": {"lat": 45.81661405547082, "lon": 4.761800637192177}, "data": {"theme": "SPORT", "nom": "Gymnase Rolland Guillaud", "soustheme": "Equipement sportif"}}, {"coordinates": {"lat": 45.811367474494865, "lon": 4.763445329698196}, "data": {"theme": "SPORT", "nom": "Piste de Bi-Cross de la Brocardi\u00e8re", "soustheme": "Equipement sportif"}}, {"coordinates": {"lat": 45.80337232581445, "lon": 4.730995336479028}, "data": {"theme": "SPORT", "nom": "Centre Equestre de Dardilly", "soustheme": "Equipement sportif"}}, {"coordinates": {"lat": 45.76260571068763, "lon": 4.814964943121098}, "data": {"theme": "SPORT", "nom": "Terrain de Sports de la Sarra", "soustheme": "Equipement sportif"}}, {"coordinates": {"lat": 45.76403303554677, "lon": 4.816049009158991}, "data": {"theme": "SPORT", "nom": "Piste VTT de la Sarra", "soustheme": "Equipement sportif"}}, {"coordinates": {"lat": 45.74967916073728, "lon": 4.8775659524206505}, "data": {"theme": "SPORT", "nom": "Gymnase Tony Bertrand", "soustheme": "Equipement sportif"}}, {"coordinates": {"lat": 45.75909300793179, "lon": 4.812305638521083}, "data": {"theme": "SPORT", "nom": "Terrain de Sports Trion", "soustheme": "Equipement sportif"}}, {"coordinates": {"lat": 45.71882818573255, "lon": 4.8176773744797305}, "data": {"theme": "SPORT", "nom": "Boulodrome de La Mulati\u00e8re", "soustheme": "Equipement sportif"}}, {"coordinates": {"lat": 45.668429454883324, "lon": 4.940795951664985}, "data": {"theme": "SPORT", "nom": "Espace Convergence", "soustheme": "Equipement sportif"}}, {"coordinates": {"lat": 45.75959218097707, "lon": 4.798777288975358}, "data": {"theme": "SPORT", "nom": "Terrain de Sports Edmond Locard", "soustheme": "Equipement sportif"}}, {"coordinates": {"lat": 45.75866842191389, "lon": 4.7910476109545455}, "data": {"theme": "SPORT", "nom": "Tennis Club Municipal de Lyon 5", "soustheme": "Equipement sportif"}}, {"coordinates": {"lat": 45.76076964724385, "lon": 4.790737889282629}, "data": {"theme": "SPORT", "nom": "Centre Equestre", "soustheme": "Equipement sportif"}}, {"coordinates": {"lat": 45.749006156021416, "lon": 4.780035985811774}, "data": {"theme": "SPORT", "nom": "Tennis La Valdi\u00e8re", "soustheme": "Equipement sportif"}}, {"coordinates": {"lat": 45.78215067513612, "lon": 4.856010386053412}, "data": {"theme": "SPORT", "nom": "V\u00e9lodrome Georges Preveral", "soustheme": "Equipement sportif"}}, {"coordinates": {"lat": 45.69176130604071, "lon": 4.941158492434801}, "data": {"theme": "SPORT", "nom": "Gymnase Colette", "soustheme": "Equipement sportif"}}, {"coordinates": {"lat": 45.855190988077375, "lon": 4.80464916963996}, "data": {"theme": "SPORT", "nom": "Terrain de Sports de Poleymieux-au-Mont-d'Or", "soustheme": "Equipement sportif"}}, {"coordinates": {"lat": 45.83081745350708, "lon": 4.8720713261266635}, "data": {"theme": "SPORT", "nom": "Club Hippique de Sathonay Camp", "soustheme": "Equipement sportif"}}, {"coordinates": {"lat": 45.81918175252697, "lon": 4.866545030881964}, "data": {"theme": "SPORT", "nom": "Stade de Sathonay-Camp", "soustheme": "Equipement sportif"}}, {"coordinates": {"lat": 45.83807453587885, "lon": 4.8709866983886565}, "data": {"theme": "SPORT", "nom": "Complexe Sportif de Sathonay-Village", "soustheme": "Equipement sportif"}}, {"coordinates": {"lat": 45.742339072961634, "lon": 4.82425420174984}, "data": {"theme": "SPORT", "nom": "Gymnase Bayard", "soustheme": "Equipement sportif"}}, {"coordinates": {"lat": 45.74248083194928, "lon": 4.819999657390872}, "data": {"theme": "SPORT", "nom": "Patinoire Charlemagne", "soustheme": "Equipement sportif"}}, {"coordinates": {"lat": 45.74324293760618, "lon": 4.8201218745223695}, "data": {"theme": "SPORT", "nom": "Gymnase Louis Chanfray", "soustheme": "Equipement sportif"}}, {"coordinates": {"lat": 45.68600670806721, "lon": 4.949730053152711}, "data": {"theme": "SPORT", "nom": "Gymnase Jacques Brel", "soustheme": "Equipement sportif"}}, {"coordinates": {"lat": 45.685199860069616, "lon": 4.943908831932504}, "data": {"theme": "SPORT", "nom": "Gymnase Hector Berlioz", "soustheme": "Equipement sportif"}}, {"coordinates": {"lat": 45.701502606408084, "lon": 4.899842912078047}, "data": {"theme": "SPORT", "nom": "Gymnase Marius Berliet", "soustheme": "Equipement sportif"}}, {"coordinates": {"lat": 45.864137630546715, "lon": 4.8345549011703675}, "data": {"theme": "SPORT", "nom": "Terrain d'Entra\u00eenement", "soustheme": "Equipement sportif"}}, {"coordinates": {"lat": 45.74972409228874, "lon": 4.770612782729525}, "data": {"theme": "SPORT", "nom": "Piscine Aquavert", "soustheme": "Piscine"}}, {"coordinates": {"lat": 45.84945932788386, "lon": 4.865524174465201}, "data": {"theme": "SPORT", "nom": "Complexe Sportif des Proli\u00e8res", "soustheme": "Equipement sportif"}}, {"coordinates": {"lat": 45.72770928916125, "lon": 4.909776580831635}, "data": {"theme": "SPORT", "nom": "Boulodrome Andr\u00e9 Frachet", "soustheme": "Equipement sportif"}}, {"coordinates": {"lat": 45.69500863885433, "lon": 4.963150730563351}, "data": {"theme": "SPORT", "nom": "Mur d'Escalade", "soustheme": "Equipement sportif"}}, {"coordinates": {"lat": 45.75542953884051, "lon": 4.8284245137051816}, "data": {"theme": "SPORT", "nom": "Gymnase Saint Marc", "soustheme": "Equipement sportif"}}, {"coordinates": {"lat": 45.75910143223382, "lon": 4.853980911862207}, "data": {"theme": "SPORT", "nom": "Boules Moncey Garibaldi", "soustheme": "Equipement sportif"}}, {"coordinates": {"lat": 45.69289473424411, "lon": 4.9589204918769525}, "data": {"theme": "SPORT", "nom": "Piscine Pierre Mend\u00e8s France", "soustheme": "Piscine"}}, {"coordinates": {"lat": 45.69586196165785, "lon": 4.94474313856858}, "data": {"theme": "SPORT", "nom": "Piscine Ulysse Coeur Caneton", "soustheme": "Piscine"}}, {"coordinates": {"lat": 45.69593561561515, "lon": 4.956670306818726}, "data": {"theme": "SPORT", "nom": "Gymnase Francois Arnaud", "soustheme": "Equipement sportif"}}, {"coordinates": {"lat": 45.69768896644295, "lon": 4.964479537161483}, "data": {"theme": "SPORT", "nom": "Piste de Bi-Cross de Saint-Priest", "soustheme": "Equipement sportif"}}, {"coordinates": {"lat": 45.6950737322127, "lon": 4.956899724439261}, "data": {"theme": "SPORT", "nom": "Tennis Roland Garros", "soustheme": "Equipement sportif"}}, {"coordinates": {"lat": 45.72618834242056, "lon": 4.807145248613414}, "data": {"theme": "SPORT", "nom": "Piscine de La Mulati\u00e8re", "soustheme": "Piscine"}}, {"coordinates": {"lat": 45.85132011811132, "lon": 4.869194014501572}, "data": {"theme": "SPORT", "nom": "Boule Joyeuse de Cailloux", "soustheme": "Equipement sportif"}}, {"coordinates": {"lat": 45.73700160819623, "lon": 4.795616739498629}, "data": {"theme": "SPORT", "nom": "Piscine de Sainte-Foy-l\u00e8s-Lyon", "soustheme": "Piscine"}}, {"coordinates": {"lat": 45.798884600659505, "lon": 4.926462727021353}, "data": {"theme": "SPORT", "nom": "Stand de Tir Vaudais", "soustheme": "Equipement sportif"}}, {"coordinates": {"lat": 45.772701770381325, "lon": 4.9170229812780875}, "data": {"theme": "SPORT", "nom": "Terrain de Sports Fr\u00e9d\u00e9ric Mistral", "soustheme": "Equipement sportif"}}, {"coordinates": {"lat": 45.78575262729586, "lon": 4.910364721839536}, "data": {"theme": "SPORT", "nom": "Tour d'Escalade de Vaulx-en-Velin", "soustheme": "Equipement sportif"}}, {"coordinates": {"lat": 45.64801060931088, "lon": 4.815426432803197}, "data": {"theme": "SPORT", "nom": "Tennis de Vernaison", "soustheme": "Equipement sportif"}}, {"coordinates": {"lat": 45.64713026445104, "lon": 4.814984698828034}, "data": {"theme": "SPORT", "nom": "Terrain de Sports de Vernaison", "soustheme": "Equipement sportif"}}, {"coordinates": {"lat": 45.656191911335846, "lon": 4.917642077324074}, "data": {"theme": "SPORT", "nom": "A\u00e9ro Mod\u00e8les Club du Rh\u00f4ne", "soustheme": "Equipement sportif"}}, {"coordinates": {"lat": 45.6563955850846, "lon": 4.909535732902099}, "data": {"theme": "SPORT", "nom": "Centre de Vol \u00e0 Voile", "soustheme": "Equipement sportif"}}, {"coordinates": {"lat": 45.65810334605079, "lon": 4.913798010212382}, "data": {"theme": "SPORT", "nom": "Espace Ciel Parachutisme Lyonnais", "soustheme": "Equipement sportif"}}, {"coordinates": {"lat": 45.81275857902678, "lon": 4.756685533367136}, "data": {"theme": "SPORT", "nom": "Complexe Sportif Moulin Carron", "soustheme": "Equipement sportif"}}, {"coordinates": {"lat": 45.775511971762526, "lon": 4.9655104798764}, "data": {"theme": "SPORT", "nom": "Gymnase Berthaudi\u00e8re", "soustheme": "Equipement sportif"}}, {"coordinates": {"lat": 45.79123553776402, "lon": 4.738252555864673}, "data": {"theme": "SPORT", "nom": "Tennis Club des 4 Saisons", "soustheme": "Equipement sportif"}}, {"coordinates": {"lat": 45.83019981625507, "lon": 4.8528474658984155}, "data": {"theme": "SPORT", "nom": "Football Club des 2 Fontaines", "soustheme": "Equipement sportif"}}, {"coordinates": {"lat": 45.83046347556929, "lon": 4.854386577883848}, "data": {"theme": "SPORT", "nom": "Salle de Sports Jean de Tournes", "soustheme": "Equipement sportif"}}, {"coordinates": {"lat": 45.73618196524253, "lon": 4.795404383104839}, "data": {"theme": "SPORT", "nom": "Gymnase Raymond Barlet", "soustheme": "Equipement sportif"}}, {"coordinates": {"lat": 45.74122689607424, "lon": 4.907564217875366}, "data": {"theme": "SPORT", "nom": "Stade Pierre Duboeuf", "soustheme": "Equipement sportif"}}, {"coordinates": {"lat": 45.72850853126044, "lon": 4.9097703443375496}, "data": {"theme": "SPORT", "nom": "Stade Jean Jaur\u00e8s", "soustheme": "Equipement sportif"}}, {"coordinates": {"lat": 45.77137167554019, "lon": 4.858267131045893}, "data": {"theme": "SPORT", "nom": "Complexe Sportif Tronchet", "soustheme": "Equipement sportif"}}, {"coordinates": {"lat": 45.76609627069924, "lon": 4.86222059917614}, "data": {"theme": "SPORT", "nom": "Gymnase Bellecombe", "soustheme": "Equipement sportif"}}, {"coordinates": {"lat": 45.768025935275354, "lon": 4.849355233795882}, "data": {"theme": "SPORT", "nom": "Gymnase Bossuet", "soustheme": "Equipement sportif"}}, {"coordinates": {"lat": 45.78006770906449, "lon": 5.020389543671224}, "data": {"theme": "SPORT", "nom": "Gymnase Olivier de Serres", "soustheme": "Equipement sportif"}}, {"coordinates": {"lat": 45.77650753217671, "lon": 4.99548130392496}, "data": {"theme": "SPORT", "nom": "Gymnase du Carreau", "soustheme": "Equipement sportif"}}, {"coordinates": {"lat": 45.76452672687048, "lon": 5.017128838284971}, "data": {"theme": "SPORT", "nom": "Gymnase des Servizi\u00e8res", "soustheme": "Equipement sportif"}}, {"coordinates": {"lat": 45.76451493895917, "lon": 5.017934258101588}, "data": {"theme": "SPORT", "nom": "Halle de Tennis", "soustheme": "Equipement sportif"}}, {"coordinates": {"lat": 45.767068337608876, "lon": 5.017622288608086}, "data": {"theme": "SPORT", "nom": "Parc des Sports les Servizi\u00e8res", "soustheme": "Equipement sportif"}}, {"coordinates": {"lat": 45.744264189769716, "lon": 4.886750448966199}, "data": {"theme": "SPORT", "nom": "Stade Juninho", "soustheme": "Equipement sportif"}}, {"coordinates": {"lat": 45.75717995049671, "lon": 4.870959561832134}, "data": {"theme": "SPORT", "nom": "Complexe Sportif Charial", "soustheme": "Equipement sportif"}}, {"coordinates": {"lat": 45.75277842430351, "lon": 4.887264832700152}, "data": {"theme": "SPORT", "nom": "Gymnase Fransisque Anselme", "soustheme": "Equipement sportif"}}, {"coordinates": {"lat": 45.784670455481624, "lon": 4.795216278909908}, "data": {"theme": "SPORT", "nom": "Gymnase de La Martini\u00e8re", "soustheme": "Equipement sportif"}}, {"coordinates": {"lat": 45.768008479856704, "lon": 4.975031742090831}, "data": {"theme": "SPORT", "nom": "Gymnase Georges Brassens", "soustheme": "Equipement sportif"}}, {"coordinates": {"lat": 45.76776085417405, "lon": 4.977820825084996}, "data": {"theme": "SPORT", "nom": "Gymnase Henri Becquerel", "soustheme": "Equipement sportif"}}, {"coordinates": {"lat": 45.754990272057505, "lon": 4.959020884036145}, "data": {"theme": "SPORT", "nom": "Piste d'A\u00e9romod\u00e9lisme", "soustheme": "Equipement sportif"}}, {"coordinates": {"lat": 45.78431556416785, "lon": 4.990167763581551}, "data": {"theme": "SPORT", "nom": "Base d'Aviron Marcel Gourjux", "soustheme": "Piscine"}}, {"coordinates": {"lat": 45.78338901342501, "lon": 4.98956362125666}, "data": {"theme": "SPORT", "nom": "Cercle de Voile de Lyon", "soustheme": "Piscine"}}, {"coordinates": {"lat": 45.72171504707469, "lon": 4.909535648547936}, "data": {"theme": "SPORT", "nom": "Hippodrome de Parilly", "soustheme": "Equipement sportif"}}, {"coordinates": {"lat": 45.78040504484266, "lon": 4.914580348533042}, "data": {"theme": "SPORT", "nom": "Piscine Jean Gelet", "soustheme": "Piscine"}}, {"coordinates": {"lat": 45.741599354216554, "lon": 4.926818961693596}, "data": {"theme": "SPORT", "nom": "Boulodrome Emile Albares", "soustheme": "Equipement sportif"}}, {"coordinates": {"lat": 45.78971284466322, "lon": 4.734357736537598}, "data": {"theme": "SPORT", "nom": "Piscine Intercommunale", "soustheme": "Piscine"}}, {"coordinates": {"lat": 45.73297009340687, "lon": 4.976828380371892}, "data": {"theme": "SPORT", "nom": "Complexe Sportif Romain Tisserand", "soustheme": "Equipement sportif"}}, {"coordinates": {"lat": 45.78694005457138, "lon": 4.989532735555865}, "data": {"theme": "SPORT", "nom": "Base Nautique du Grand Large", "soustheme": "Piscine"}}, {"coordinates": {"lat": 45.770526379633324, "lon": 4.997867962115272}, "data": {"theme": "SPORT", "nom": "Boulodrome de Meyzieu", "soustheme": "Equipement sportif"}}, {"coordinates": {"lat": 45.75910437523316, "lon": 4.84884161315108}, "data": {"theme": "SPORT", "nom": "Gymnase Mazenod", "soustheme": "Equipement sportif"}}, {"coordinates": {"lat": 45.77122767382655, "lon": 4.996379640208099}, "data": {"theme": "SPORT", "nom": "Gymnase Evariste Galois", "soustheme": "Equipement sportif"}}, {"coordinates": {"lat": 45.75463582016365, "lon": 4.859634562686193}, "data": {"theme": "SPORT", "nom": "Halle des Sports Vivier-Merle", "soustheme": "Equipement sportif"}}, {"coordinates": {"lat": 45.75583013380334, "lon": 4.853203246847645}, "data": {"theme": "SPORT", "nom": "Piscine d'hiver Garibaldi", "soustheme": "Piscine"}}, {"coordinates": {"lat": 45.755059822110596, "lon": 4.853833841928597}, "data": {"theme": "SPORT", "nom": "Gymnase L\u00e9on Jouhaux", "soustheme": "Equipement sportif"}}, {"coordinates": {"lat": 45.692375384750896, "lon": 4.966397466422931}, "data": {"theme": "SPORT", "nom": "Centre Equestre Poney Club", "soustheme": "Equipement sportif"}}, {"coordinates": {"lat": 45.70542534194972, "lon": 4.934148237108497}, "data": {"theme": "SPORT", "nom": "Gymnase G\u00e9rard Philippe", "soustheme": "Equipement sportif"}}, {"coordinates": {"lat": 45.69327490410368, "lon": 4.943686259215123}, "data": {"theme": "SPORT", "nom": "Gymnase Condorcet", "soustheme": "Equipement sportif"}}, {"coordinates": {"lat": 45.70142700361497, "lon": 4.982886235902014}, "data": {"theme": "SPORT", "nom": "Stade de Manissieux", "soustheme": "Equipement sportif"}}, {"coordinates": {"lat": 45.73587240146981, "lon": 4.969220814792518}, "data": {"theme": "SPORT", "nom": "Stade Andr\u00e9 Joly", "soustheme": "Equipement sportif"}}, {"coordinates": {"lat": 45.66297419598609, "lon": 4.913084298093251}, "data": {"theme": "SPORT", "nom": "Complexe Sportif des Taillis", "soustheme": "Equipement sportif"}}, {"coordinates": {"lat": 45.7627170871504, "lon": 4.965786696503601}, "data": {"theme": "SPORT", "nom": "Salle des Sports Robert Legras", "soustheme": "Equipement sportif"}}, {"coordinates": {"lat": 45.65613354495124, "lon": 4.9005356186424684}, "data": {"theme": "SPORT", "nom": "Gymnase Jean Falcot", "soustheme": "Equipement sportif"}}, {"coordinates": {"lat": 45.67532533976995, "lon": 4.914191598378258}, "data": {"theme": "SPORT", "nom": "Gymnase des Roses", "soustheme": "Equipement sportif"}}, {"coordinates": {"lat": 45.66245143248722, "lon": 4.894467980850424}, "data": {"theme": "SPORT", "nom": "Stade Aim\u00e9 Lachenal", "soustheme": "Equipement sportif"}}, {"coordinates": {"lat": 45.74042702440214, "lon": 4.710624284790855}, "data": {"theme": "SPORT", "nom": "Stade Charles Trevoux", "soustheme": "Equipement sportif"}}, {"coordinates": {"lat": 45.73925749059334, "lon": 4.944828397159806}, "data": {"theme": "SPORT", "nom": "Golf de Lyon Chassieu", "soustheme": "Equipement sportif"}}, {"coordinates": {"lat": 45.74009063102989, "lon": 4.98191728509625}, "data": {"theme": "SPORT", "nom": "Gymnase du Raquin", "soustheme": "Equipement sportif"}}, {"coordinates": {"lat": 45.64647226959306, "lon": 4.8157520711930015}, "data": {"theme": "SPORT", "nom": "Bassin des Joutes", "soustheme": "Piscine"}}, {"coordinates": {"lat": 45.645546756012024, "lon": 4.8143084785858035}, "data": {"theme": "SPORT", "nom": "Bassin des Joutes", "soustheme": "Piscine"}}, {"coordinates": {"lat": 45.742792589130886, "lon": 4.970346988680063}, "data": {"theme": "SPORT", "nom": "Stade Fonlupt", "soustheme": "Equipement sportif"}}, {"coordinates": {"lat": 45.66567593712232, "lon": 4.845259531866163}, "data": {"theme": "SPORT", "nom": "Piscine de Feyzin", "soustheme": "Piscine"}}, {"coordinates": {"lat": 45.74502928224394, "lon": 4.725314955069307}, "data": {"theme": "SPORT", "nom": "Stade Bouliste", "soustheme": "Equipement sportif"}}, {"coordinates": {"lat": 45.744985127854314, "lon": 4.7258541800095575}, "data": {"theme": "SPORT", "nom": "Salle Gaston Rebuffat", "soustheme": "Equipement sportif"}}, {"coordinates": {"lat": 45.68741421406155, "lon": 4.927239517042928}, "data": {"theme": "SPORT", "nom": "Stade SNCF", "soustheme": "Equipement sportif"}}, {"coordinates": {"lat": 45.75026444337715, "lon": 4.917889615822305}, "data": {"theme": "SPORT", "nom": "Boulodrome des Brosses", "soustheme": "Equipement sportif"}}, {"coordinates": {"lat": 45.757308373211586, "lon": 4.90748517924385}, "data": {"theme": "SPORT", "nom": "Boulodrome de la Ligne de l'Est", "soustheme": "Equipement sportif"}}, {"coordinates": {"lat": 45.77862854222677, "lon": 4.886726992836959}, "data": {"theme": "SPORT", "nom": "Complexe Sportif Armand", "soustheme": "Equipement sportif"}}, {"coordinates": {"lat": 45.75178855558366, "lon": 4.913403452335573}, "data": {"theme": "SPORT", "nom": "Gymnase Albert Camus", "soustheme": "Equipement sportif"}}, {"coordinates": {"lat": 45.664192689553325, "lon": 4.844713051391957}, "data": {"theme": "SPORT", "nom": "Stade Jean Bouin", "soustheme": "Equipement sportif"}}, {"coordinates": {"lat": 45.774780745669474, "lon": 4.955500724582771}, "data": {"theme": "SPORT", "nom": "Sauveteurs et Aviron D\u00e9cinois", "soustheme": "Piscine"}}, {"coordinates": {"lat": 45.77133608854606, "lon": 4.940262245412378}, "data": {"theme": "SPORT", "nom": "Stade Jean et Youri Djorkaeff", "soustheme": "Equipement sportif"}}, {"coordinates": {"lat": 45.816317741481605, "lon": 4.885915032393637}, "data": {"theme": "SPORT", "nom": "Complexe Sportif du Loup Pendu", "soustheme": "Equipement sportif"}}, {"coordinates": {"lat": 45.7332604199602, "lon": 4.788341615773456}, "data": {"theme": "SPORT", "nom": "Stade du Plan du Loup", "soustheme": "Equipement sportif"}}, {"coordinates": {"lat": 45.74899499936466, "lon": 4.806231789074035}, "data": {"theme": "SPORT", "nom": "Tennis Club Chavril", "soustheme": "Equipement sportif"}}, {"coordinates": {"lat": 45.7391645427281, "lon": 4.799289583706538}, "data": {"theme": "SPORT", "nom": "Tennis Club Municipal Fid\u00e9sien", "soustheme": "Equipement sportif"}}, {"coordinates": {"lat": 45.749072255523416, "lon": 4.86318193738598}, "data": {"theme": "SPORT", "nom": "Maison du Judo", "soustheme": "Equipement sportif"}}, {"coordinates": {"lat": 45.740667789927116, "lon": 4.80477259191516}, "data": {"theme": "SPORT", "nom": "Terrain de Sports Marius Bourrat", "soustheme": "Equipement sportif"}}, {"coordinates": {"lat": 45.756622813319034, "lon": 4.723480150119401}, "data": {"theme": "SPORT", "nom": "Salle des Sports de Saint-Genis-les-Olli\u00e8res", "soustheme": "Equipement sportif"}}, {"coordinates": {"lat": 45.76887516099641, "lon": 4.732932989757667}, "data": {"theme": "SPORT", "nom": "Stade Louis Bobet", "soustheme": "Equipement sportif"}}, {"coordinates": {"lat": 45.83898014259814, "lon": 4.822296005298226}, "data": {"theme": "SPORT", "nom": "Terrain de Jeux de Saint-Romain-au-Mont-d'Or", "soustheme": "Equipement sportif"}}, {"coordinates": {"lat": 45.7656622127816, "lon": 4.9994626410413066}, "data": {"theme": "SPORT", "nom": "Gymnase du Bourg", "soustheme": "Equipement sportif"}}, {"coordinates": {"lat": 45.76172057001599, "lon": 4.867882199979605}, "data": {"theme": "SPORT", "nom": "Patinoire Baraban", "soustheme": "Equipement sportif"}}, {"coordinates": {"lat": 45.81688129025978, "lon": 4.8864082318385345}, "data": {"theme": "SPORT", "nom": "Piscine du Loup Pendu", "soustheme": "Piscine"}}, {"coordinates": {"lat": 45.81658978875769, "lon": 4.906387567477412}, "data": {"theme": "SPORT", "nom": "Gymnase Louison Bobet", "soustheme": "Equipement sportif"}}, {"coordinates": {"lat": 45.81242112071178, "lon": 4.899177151386427}, "data": {"theme": "SPORT", "nom": "Stade Castellane", "soustheme": "Equipement sportif"}}, {"coordinates": {"lat": 45.8067938036594, "lon": 4.904165792573057}, "data": {"theme": "SPORT", "nom": "Stade des L\u00f4nes", "soustheme": "Equipement sportif"}}, {"coordinates": {"lat": 45.672049693697254, "lon": 4.865513884750618}, "data": {"theme": "SPORT", "nom": "Centre Equestre de Feyzin", "soustheme": "Equipement sportif"}}, {"coordinates": {"lat": 45.751604849144236, "lon": 4.8791870798539225}, "data": {"theme": "SPORT", "nom": "Salle de Gymnastique Jeanne d'Arc", "soustheme": "Equipement sportif"}}, {"coordinates": {"lat": 45.7925108221146, "lon": 4.789648299167957}, "data": {"theme": "SPORT", "nom": "Complexe Sportif Barth\u00e9l\u00e9my Bonora", "soustheme": "Equipement sportif"}}, {"coordinates": {"lat": 45.73719306797561, "lon": 4.967567784567614}, "data": {"theme": "SPORT", "nom": "Tir \u00e0 l'Arc de Chassieu", "soustheme": "Equipement sportif"}}, {"coordinates": {"lat": 45.79585461354202, "lon": 4.78539681248245}, "data": {"theme": "SPORT", "nom": "Gymnase Marcel Chatelet", "soustheme": "Equipement sportif"}}, {"coordinates": {"lat": 45.79560597981843, "lon": 4.789533620762171}, "data": {"theme": "SPORT", "nom": "Stade Bouliste de Champagne-au-Mont-d'Or", "soustheme": "Equipement sportif"}}, {"coordinates": {"lat": 45.798981374995634, "lon": 4.778248926325199}, "data": {"theme": "SPORT", "nom": "Stade Ren\u00e9 Rollet", "soustheme": "Equipement sportif"}}, {"coordinates": {"lat": 45.72684716146978, "lon": 4.806877701574526}, "data": {"theme": "SPORT", "nom": "Stade Philippe Danilo", "soustheme": "Equipement sportif"}}, {"coordinates": {"lat": 45.72748513430227, "lon": 4.809137387826769}, "data": {"theme": "SPORT", "nom": "Gymnase du Grand C\u00e8dre", "soustheme": "Equipement sportif"}}, {"coordinates": {"lat": 45.72678604471138, "lon": 4.805911264870599}, "data": {"theme": "SPORT", "nom": "Tennis Club de La Mulati\u00e8re", "soustheme": "Equipement sportif"}}, {"coordinates": {"lat": 45.72590914283247, "lon": 4.805847177744087}, "data": {"theme": "SPORT", "nom": "Terrain d'Aventure", "soustheme": "Equipement sportif"}}, {"coordinates": {"lat": 45.727295934365, "lon": 4.813492431343795}, "data": {"theme": "SPORT", "nom": "Gymnase de l'Eclair du Confluent", "soustheme": "Equipement sportif"}}, {"coordinates": {"lat": 45.80192238264689, "lon": 4.771448935361476}, "data": {"theme": "SPORT", "nom": "Tennis des Monts d'Or", "soustheme": "Equipement sportif"}}, {"coordinates": {"lat": 45.74233454651245, "lon": 4.969341923308016}, "data": {"theme": "SPORT", "nom": "Maison des Sports de Chassieu", "soustheme": "Equipement sportif"}}, {"coordinates": {"lat": 45.775946854732204, "lon": 4.978605841028595}, "data": {"theme": "SPORT", "nom": "Terrain de Sports Moulin d'Amont", "soustheme": "Equipement sportif"}}, {"coordinates": {"lat": 45.675098780653926, "lon": 4.858391905388453}, "data": {"theme": "SPORT", "nom": "Boulodrome Ballestra", "soustheme": "Equipement sportif"}}, {"coordinates": {"lat": 45.669765544691415, "lon": 4.811152848446382}, "data": {"theme": "SPORT", "nom": "Parc de Loisirs Champvillard", "soustheme": "Equipement sportif"}}, {"coordinates": {"lat": 45.71607919900265, "lon": 4.789788703181573}, "data": {"theme": "SPORT", "nom": "Gymnase Montlouis", "soustheme": "Equipement sportif"}}, {"coordinates": {"lat": 45.7230341969037, "lon": 4.8797742737940375}, "data": {"theme": "SPORT", "nom": "Stade Roger Ebrard", "soustheme": "Equipement sportif"}}, {"coordinates": {"lat": 45.724881099434114, "lon": 4.8157842311151855}, "data": {"theme": "SPORT", "nom": "Salle Fran\u00e7ois Bes", "soustheme": "Equipement sportif"}}, {"coordinates": {"lat": 45.72652915956311, "lon": 4.817043448179747}, "data": {"theme": "SPORT", "nom": "Ecluse pour Joutes et Barques", "soustheme": "Piscine"}}, {"coordinates": {"lat": 45.86838687866718, "lon": 4.845065885416136}, "data": {"theme": "SPORT", "nom": "Complexe Sportif de la T\u00eate Noire", "soustheme": "Equipement sportif"}}, {"coordinates": {"lat": 45.766301332254706, "lon": 4.74887309989424}, "data": {"theme": "SPORT", "nom": "Espace Sportif des Coquelicots", "soustheme": "Equipement sportif"}}, {"coordinates": {"lat": 45.75675379637452, "lon": 4.7687867627160205}, "data": {"theme": "SPORT", "nom": "Stade Ren\u00e9 Dubot", "soustheme": "Equipement sportif"}}, {"coordinates": {"lat": 45.758282328221966, "lon": 4.768018014017477}, "data": {"theme": "SPORT", "nom": "Gymnase des Croisettes", "soustheme": "Equipement sportif"}}, {"coordinates": {"lat": 45.71818426872228, "lon": 4.895230680124639}, "data": {"theme": "SPORT", "nom": "Plaine des Sports du Parc de Parilly", "soustheme": "Equipement sportif"}}, {"coordinates": {"lat": 45.779114327415236, "lon": 5.017757918374551}, "data": {"theme": "SPORT", "nom": "Piste de Bi-Cross de Meyzieu", "soustheme": "Equipement sportif"}}, {"coordinates": {"lat": 45.670344502050774, "lon": 4.812037031989489}, "data": {"theme": "SPORT", "nom": "Piscine d'Irigny", "soustheme": "Piscine"}}, {"coordinates": {"lat": 45.69067865731548, "lon": 4.82315312600994}, "data": {"theme": "SPORT", "nom": "Stade d'Yvours", "soustheme": "Equipement sportif"}}, {"coordinates": {"lat": 45.67061813549742, "lon": 4.861350645452679}, "data": {"theme": "SPORT", "nom": "Salle des Arts Martiaux", "soustheme": "Equipement sportif"}}, {"coordinates": {"lat": 45.665236421214175, "lon": 4.849001813326699}, "data": {"theme": "SPORT", "nom": "Salle Omnisports M Ramillier", "soustheme": "Equipement sportif"}}, {"coordinates": {"lat": 45.682140160364135, "lon": 4.858632599576819}, "data": {"theme": "SPORT", "nom": "Stade Pascal Dupuis", "soustheme": "Equipement sportif"}}, {"coordinates": {"lat": 45.695223935030334, "lon": 4.93799378852066}, "data": {"theme": "SPORT", "nom": "Gymnase L\u00e9on Perrier", "soustheme": "Equipement sportif"}}, {"coordinates": {"lat": 45.69894968305778, "lon": 4.925558297177397}, "data": {"theme": "SPORT", "nom": "Stade Jean Bouin", "soustheme": "Equipement sportif"}}, {"coordinates": {"lat": 45.694805944349945, "lon": 4.958298715051761}, "data": {"theme": "SPORT", "nom": "Stade Pierre Mend\u00e8s France", "soustheme": "Equipement sportif"}}, {"coordinates": {"lat": 45.75726749209774, "lon": 4.863448302414215}, "data": {"theme": "SPORT", "nom": "Salle de Sports Paul Bert", "soustheme": "Equipement sportif"}}, {"coordinates": {"lat": 45.69070590543838, "lon": 4.767330688758086}, "data": {"theme": "SPORT", "nom": "Terrain de Sports de Saint-Genis-Laval", "soustheme": "Equipement sportif"}}, {"coordinates": {"lat": 45.696588821412405, "lon": 4.94050539458912}, "data": {"theme": "SPORT", "nom": "Boulodrome Marius Joly", "soustheme": "Equipement sportif"}}, {"coordinates": {"lat": 45.696629975327596, "lon": 4.939310561534329}, "data": {"theme": "SPORT", "nom": "Stade Municipal Jacques Joly", "soustheme": "Equipement sportif"}}, {"coordinates": {"lat": 45.75585697555756, "lon": 4.847942131522324}, "data": {"theme": "SPORT", "nom": "Salle des Rancy", "soustheme": "Equipement sportif"}}, {"coordinates": {"lat": 45.750552595316925, "lon": 4.879001141056126}, "data": {"theme": "SPORT", "nom": "Stade Marc-Vivien Fo\u00e9", "soustheme": "Equipement sportif"}}, {"coordinates": {"lat": 45.74766008507207, "lon": 4.870405957383778}, "data": {"theme": "SPORT", "nom": "Tennis Lyon 3", "soustheme": "Equipement sportif"}}, {"coordinates": {"lat": 45.77074890499872, "lon": 4.847701525684199}, "data": {"theme": "SPORT", "nom": "Gymnase Crillon", "soustheme": "Equipement sportif"}}, {"coordinates": {"lat": 45.77604256875848, "lon": 4.917493190527268}, "data": {"theme": "SPORT", "nom": "Gymnase Antoine Blondin", "soustheme": "Equipement sportif"}}, {"coordinates": {"lat": 45.77802170138264, "lon": 4.741965835018964}, "data": {"theme": "SPORT", "nom": "Espace de la Bressonni\u00e8re", "soustheme": "Equipement sportif"}}, {"coordinates": {"lat": 45.77708620334611, "lon": 4.741328891480667}, "data": {"theme": "SPORT", "nom": "Stade Bouliste de Charbonni\u00e8res-les-Bains", "soustheme": "Equipement sportif"}}, {"coordinates": {"lat": 45.88568324114244, "lon": 4.850428400636618}, "data": {"theme": "SPORT", "nom": "Complexe Sportif de l'Etang", "soustheme": "Equipement sportif"}}, {"coordinates": {"lat": 45.87334186464929, "lon": 4.838051555019415}, "data": {"theme": "SPORT", "nom": "Piste de Bi-Cross de Neuville-sur-Sa\u00f4ne", "soustheme": "Equipement sportif"}}, {"coordinates": {"lat": 45.75619703927499, "lon": 4.929987534923028}, "data": {"theme": "SPORT", "nom": "Gymnase Ambroise Croizat", "soustheme": "Equipement sportif"}}, {"coordinates": {"lat": 45.7565291739821, "lon": 4.925118450740444}, "data": {"theme": "SPORT", "nom": "Stade Edouard Aubert", "soustheme": "Equipement sportif"}}, {"coordinates": {"lat": 45.78469291047018, "lon": 4.9165641837232545}, "data": {"theme": "SPORT", "nom": "Gymnase des Noirettes", "soustheme": "Equipement sportif"}}, {"coordinates": {"lat": 45.87018776287601, "lon": 4.837214365057618}, "data": {"theme": "SPORT", "nom": "Stade Ren\u00e9 Millet", "soustheme": "Equipement sportif"}}, {"coordinates": {"lat": 45.86881259973551, "lon": 4.838354946434868}, "data": {"theme": "SPORT", "nom": "Stade Jean Oboussier", "soustheme": "Equipement sportif"}}, {"coordinates": {"lat": 45.70006903947427, "lon": 4.81886689275249}, "data": {"theme": "SPORT", "nom": "Complexe Sportif Viollet Bassini", "soustheme": "Equipement sportif"}}, {"coordinates": {"lat": 45.759309422914384, "lon": 4.771950544030298}, "data": {"theme": "SPORT", "nom": "Gymnase des Gen\u00eati\u00e8res", "soustheme": "Equipement sportif"}}, {"coordinates": {"lat": 45.76586786421114, "lon": 4.756238473277802}, "data": {"theme": "SPORT", "nom": "Stade du Sauze", "soustheme": "Equipement sportif"}}, {"coordinates": {"lat": 45.75262440721138, "lon": 4.805228419215436}, "data": {"theme": "SPORT", "nom": "Gymnase Commandant Charcot", "soustheme": "Equipement sportif"}}, {"coordinates": {"lat": 45.759832341723424, "lon": 5.011837933518768}, "data": {"theme": "SPORT", "nom": "Gymnase Ren\u00e9 Cassin", "soustheme": "Equipement sportif"}}, {"coordinates": {"lat": 45.78238982617095, "lon": 4.745796947635054}, "data": {"theme": "SPORT", "nom": "Parc des Sports de Charbonni\u00e8res-les-Bains", "soustheme": "Equipement sportif"}}, {"coordinates": {"lat": 45.74258349584791, "lon": 4.967879791004337}, "data": {"theme": "SPORT", "nom": "Piscine de Chassieu", "soustheme": "Piscine"}}, {"coordinates": {"lat": 45.90265332735499, "lon": 4.852134756590966}, "data": {"theme": "SPORT", "nom": "Club de Tennis du Bois Ayn\u00e9", "soustheme": "Equipement sportif"}}, {"coordinates": {"lat": 45.896823456583604, "lon": 4.836804741632294}, "data": {"theme": "SPORT", "nom": "Stade Claude Perret", "soustheme": "Equipement sportif"}}, {"coordinates": {"lat": 45.897719933831716, "lon": 4.838242326354111}, "data": {"theme": "SPORT", "nom": "Espace Henri Vicard", "soustheme": "Equipement sportif"}}, {"coordinates": {"lat": 45.66266105712851, "lon": 4.949942372224224}, "data": {"theme": "SPORT", "nom": "Courts de Tennis de Mions", "soustheme": "Equipement sportif"}}, {"coordinates": {"lat": 45.662829976328446, "lon": 4.946074179176883}, "data": {"theme": "SPORT", "nom": "Stade de Football Route de Corbas", "soustheme": "Equipement sportif"}}, {"coordinates": {"lat": 45.66835906998732, "lon": 4.954677034960206}, "data": {"theme": "SPORT", "nom": "Stade des Tilleuls", "soustheme": "Equipement sportif"}}, {"coordinates": {"lat": 45.67063543611283, "lon": 4.954908665573258}, "data": {"theme": "SPORT", "nom": "Gymnase des Tilleuls", "soustheme": "Equipement sportif"}}, {"coordinates": {"lat": 45.66157068582478, "lon": 4.954663229594911}, "data": {"theme": "SPORT", "nom": "Plateau Jean Tardy", "soustheme": "Equipement sportif"}}, {"coordinates": {"lat": 45.66109908088435, "lon": 4.955257410017646}, "data": {"theme": "SPORT", "nom": "Salle d'Arts Martiaux", "soustheme": "Equipement sportif"}}, {"coordinates": {"lat": 45.67468927797917, "lon": 4.9498199648545125}, "data": {"theme": "SPORT", "nom": "Skate Park de Mions", "soustheme": "Equipement sportif"}}, {"coordinates": {"lat": 45.764931833751035, "lon": 4.903152583161805}, "data": {"theme": "SPORT", "nom": "Gymnase du Quartier Cusset", "soustheme": "Equipement sportif"}}, {"coordinates": {"lat": 45.74950756268793, "lon": 4.917513130193899}, "data": {"theme": "SPORT", "nom": "Gymnase des Brosses", "soustheme": "Equipement sportif"}}, {"coordinates": {"lat": 45.75790041854423, "lon": 4.886623003480843}, "data": {"theme": "SPORT", "nom": "Gymnase Eug\u00e8ne Fourni\u00e8re", "soustheme": "Equipement sportif"}}, {"coordinates": {"lat": 45.7614121883935, "lon": 4.872751091896283}, "data": {"theme": "SPORT", "nom": "Gymnase Jean Mollier", "soustheme": "Equipement sportif"}}, {"coordinates": {"lat": 45.76328524041189, "lon": 4.882155169085839}, "data": {"theme": "SPORT", "nom": "Gymnase L\u00e9on Jouhaux", "soustheme": "Equipement sportif"}}, {"coordinates": {"lat": 45.75044886169057, "lon": 4.792073625525673}, "data": {"theme": "SPORT", "nom": "Gymnase Edouard Branly", "soustheme": "Equipement sportif"}}, {"coordinates": {"lat": 45.750563001829086, "lon": 4.780042392158321}, "data": {"theme": "SPORT", "nom": "Gymnase Eisenhower", "soustheme": "Equipement sportif"}}, {"coordinates": {"lat": 45.75754867604605, "lon": 4.818582846296783}, "data": {"theme": "SPORT", "nom": "Gymnase Jean Moulin", "soustheme": "Equipement sportif"}}, {"coordinates": {"lat": 45.78051005572261, "lon": 4.85817376640578}, "data": {"theme": "SPORT", "nom": "Jeux de Boules Louis Pradel", "soustheme": "Equipement sportif"}}, {"coordinates": {"lat": 45.770894728294465, "lon": 4.849021782279083}, "data": {"theme": "SPORT", "nom": "Salle d'Escrime Le Masque de Fer", "soustheme": "Equipement sportif"}}, {"coordinates": {"lat": 45.765428198392264, "lon": 4.846226939730077}, "data": {"theme": "SPORT", "nom": "Stade Edgard Quinet", "soustheme": "Equipement sportif"}}, {"coordinates": {"lat": 45.76289329301513, "lon": 4.901748756210678}, "data": {"theme": "SPORT", "nom": "Complexe Sportif Boiron Granger", "soustheme": "Equipement sportif"}}, {"coordinates": {"lat": 45.75304700078911, "lon": 4.9017354464706875}, "data": {"theme": "SPORT", "nom": "Stade Cyprian", "soustheme": "Equipement sportif"}}, {"coordinates": {"lat": 45.78020913595309, "lon": 4.885661974186123}, "data": {"theme": "SPORT", "nom": "Stade Dominique Mateo", "soustheme": "Equipement sportif"}}, {"coordinates": {"lat": 45.76947110228938, "lon": 4.885610912659263}, "data": {"theme": "SPORT", "nom": "Stade de la Viabert", "soustheme": "Equipement sportif"}}, {"coordinates": {"lat": 45.76745089197792, "lon": 4.898369427377275}, "data": {"theme": "SPORT", "nom": "Complexe Sportif des Iris", "soustheme": "Equipement sportif"}}, {"coordinates": {"lat": 45.77758603145402, "lon": 4.90056994426141}, "data": {"theme": "SPORT", "nom": "Stade des Peupliers", "soustheme": "Equipement sportif"}}, {"coordinates": {"lat": 45.77926718603953, "lon": 4.901368137683068}, "data": {"theme": "SPORT", "nom": "Stade Marie-Th\u00e9r\u00e8se Eyquem", "soustheme": "Equipement sportif"}}, {"coordinates": {"lat": 45.73716445364238, "lon": 4.921878420859536}, "data": {"theme": "SPORT", "nom": "Halle des Sports", "soustheme": "Equipement sportif"}}, {"coordinates": {"lat": 45.74141268953292, "lon": 4.908443442310479}, "data": {"theme": "SPORT", "nom": "Piscine de Bron", "soustheme": "Piscine"}}, {"coordinates": {"lat": 45.86155436168199, "lon": 4.836163538519752}, "data": {"theme": "SPORT", "nom": "Stade Henri Maret", "soustheme": "Equipement sportif"}}, {"coordinates": {"lat": 45.789272877847814, "lon": 4.9151596869329515}, "data": {"theme": "SPORT", "nom": "Gymnase Henri Wallon", "soustheme": "Equipement sportif"}}, {"coordinates": {"lat": 45.780922037800444, "lon": 4.739281217843748}, "data": {"theme": "SPORT", "nom": "Salle Omnisports Sainte Luce", "soustheme": "Equipement sportif"}}, {"coordinates": {"lat": 45.78756990929714, "lon": 4.73325120244738}, "data": {"theme": "SPORT", "nom": "Sporting Club de Charbonni\u00e8res-les-Bains", "soustheme": "Equipement sportif"}}, {"coordinates": {"lat": 45.7339032516657, "lon": 4.973848304876587}, "data": {"theme": "SPORT", "nom": "Boulodrome de Chassieu", "soustheme": "Equipement sportif"}}, {"coordinates": {"lat": 45.74714427483408, "lon": 4.958444948269126}, "data": {"theme": "SPORT", "nom": "Tennis Club de Chassieu", "soustheme": "Equipement sportif"}}, {"coordinates": {"lat": 45.868062297890525, "lon": 4.812944912220844}, "data": {"theme": "SPORT", "nom": "Site d'Escalade de Curis-au-Mont-d'Or", "soustheme": "Equipement sportif"}}, {"coordinates": {"lat": 45.87358306528384, "lon": 4.823669983063413}, "data": {"theme": "SPORT", "nom": "Stade Antoine Botton", "soustheme": "Equipement sportif"}}, {"coordinates": {"lat": 45.882278156004745, "lon": 4.8736859589708885}, "data": {"theme": "SPORT", "nom": "Salle des Sports de Montanay", "soustheme": "Equipement sportif"}}, {"coordinates": {"lat": 45.69783366393429, "lon": 4.818718332402317}, "data": {"theme": "SPORT", "nom": "Gymnase Samuel Paillat", "soustheme": "Equipement sportif"}}, {"coordinates": {"lat": 45.70519529389524, "lon": 4.817675992976154}, "data": {"theme": "SPORT", "nom": "Halle de Basket-Ball Paul Bert", "soustheme": "Equipement sportif"}}, {"coordinates": {"lat": 45.71082159313004, "lon": 4.823053793540501}, "data": {"theme": "SPORT", "nom": "Stade Atofina", "soustheme": "Equipement sportif"}}, {"coordinates": {"lat": 45.704609702129, "lon": 4.826430586372546}, "data": {"theme": "SPORT", "nom": "Stade du Brotillon", "soustheme": "Equipement sportif"}}, {"coordinates": {"lat": 45.69817090731759, "lon": 4.833255636152408}, "data": {"theme": "SPORT", "nom": "Stade Lapalus", "soustheme": "Equipement sportif"}}, {"coordinates": {"lat": 45.67001083693049, "lon": 4.810654414945482}, "data": {"theme": "SPORT", "nom": "Tennis Champvillard", "soustheme": "Equipement sportif"}}, {"coordinates": {"lat": 45.77994209629267, "lon": 4.922462842932998}, "data": {"theme": "SPORT", "nom": "Gymnase Jean-Jacques Rousseau", "soustheme": "Equipement sportif"}}, {"coordinates": {"lat": 45.7786928857063, "lon": 4.92101869422055}, "data": {"theme": "SPORT", "nom": "Palais des Sports de Vaulx-en-Velin", "soustheme": "Equipement sportif"}}, {"coordinates": {"lat": 45.770577296781944, "lon": 4.919842735656969}, "data": {"theme": "SPORT", "nom": "Jeux de Boules Roger Laurent", "soustheme": "Equipement sportif"}}, {"coordinates": {"lat": 45.77565671624898, "lon": 4.932846012197648}, "data": {"theme": "SPORT", "nom": "Stade Franscisque Jomard", "soustheme": "Equipement sportif"}}, {"coordinates": {"lat": 45.776480792816336, "lon": 4.9323995816392845}, "data": {"theme": "SPORT", "nom": "Stade Franscisque Jomard", "soustheme": "Equipement sportif"}}, {"coordinates": {"lat": 45.77246096830892, "lon": 4.910525816392375}, "data": {"theme": "SPORT", "nom": "Stade Jules Ladoum\u00e8gue", "soustheme": "Equipement sportif"}}, {"coordinates": {"lat": 45.7482495132027, "lon": 4.789878688504879}, "data": {"theme": "SPORT", "nom": "Gymnase Jeunet", "soustheme": "Equipement sportif"}}, {"coordinates": {"lat": 45.76524222527332, "lon": 4.826965879315286}, "data": {"theme": "SPORT", "nom": "Salle Auguste Th\u00e9zillat", "soustheme": "Equipement sportif"}}, {"coordinates": {"lat": 45.75558781863324, "lon": 4.784099462683415}, "data": {"theme": "SPORT", "nom": "Stade Alexandre Morin", "soustheme": "Equipement sportif"}}, {"coordinates": {"lat": 45.758399861788256, "lon": 4.799830134529378}, "data": {"theme": "SPORT", "nom": "Stade Saint Marc", "soustheme": "Equipement sportif"}}, {"coordinates": {"lat": 45.776239550929574, "lon": 4.968125517527281}, "data": {"theme": "SPORT", "nom": "Skate Park", "soustheme": "Equipement sportif"}}, {"coordinates": {"lat": 45.752259645486546, "lon": 4.82116791338473}, "data": {"theme": "SPORT", "nom": "Gymnase de la Quarantaine", "soustheme": "Equipement sportif"}}, {"coordinates": {"lat": 45.78231796209648, "lon": 4.784771404307589}, "data": {"theme": "SPORT", "nom": "Gymnase du Cosec", "soustheme": "Equipement sportif"}}, {"coordinates": {"lat": 45.642428483235435, "lon": 4.838920985135102}, "data": {"theme": "SPORT", "nom": "Gymnase de Solaize", "soustheme": "Equipement sportif"}}, {"coordinates": {"lat": 45.68482617729053, "lon": 4.786451819410667}, "data": {"theme": "SPORT", "nom": "Gymnase Equinoxe", "soustheme": "Equipement sportif"}}, {"coordinates": {"lat": 45.787519674217236, "lon": 4.9249024613197605}, "data": {"theme": "SPORT", "nom": "Gymnase Paul Roux", "soustheme": "Equipement sportif"}}, {"coordinates": {"lat": 45.7820294407588, "lon": 4.9210584091688085}, "data": {"theme": "SPORT", "nom": "Gymnase Jesse Owens", "soustheme": "Equipement sportif"}}, {"coordinates": {"lat": 45.800573067581524, "lon": 4.943386668102831}, "data": {"theme": "SPORT", "nom": "Espace Multisport Grand Parc", "soustheme": "Equipement sportif"}}, {"coordinates": {"lat": 45.70414832327153, "lon": 4.828423576190999}, "data": {"theme": "SPORT", "nom": "Skate Parc de Pierre-Benite", "soustheme": "Equipement sportif"}}, {"coordinates": {"lat": 45.775980607068014, "lon": 4.8646409179125865}, "data": {"theme": "SPORT", "nom": "Gymnase du Tonkin", "soustheme": "Equipement sportif"}}, {"coordinates": {"lat": 45.91708785699377, "lon": 4.772642916436989}, "data": {"theme": "SPORT", "nom": "Tennis Club de Quincieux", "soustheme": "Equipement sportif"}}, {"coordinates": {"lat": 45.72246873465525, "lon": 4.936329732036194}, "data": {"theme": "SPORT", "nom": "Complexe Sportif ASPTT Lyon", "soustheme": "Equipement sportif"}}, {"coordinates": {"lat": 45.739668650664974, "lon": 4.777202266962118}, "data": {"theme": "SPORT", "nom": "Gymnase Jean Boistard", "soustheme": "Equipement sportif"}}, {"coordinates": {"lat": 45.91668163089578, "lon": 4.772137651371275}, "data": {"theme": "SPORT", "nom": "Tennis Club de Quincieux", "soustheme": "Equipement sportif"}}, {"coordinates": {"lat": 45.82343977878196, "lon": 4.898757503290277}, "data": {"theme": "SPORT", "nom": "Gymnases Clos Penet", "soustheme": "Equipement sportif"}}, {"coordinates": {"lat": 45.75407452138547, "lon": 4.837928274552508}, "data": {"theme": "SPORT", "nom": "Centre Nautique Tony Bertrand", "soustheme": "Piscine"}}, {"coordinates": {"lat": 45.78730909136959, "lon": 4.795941453782627}, "data": {"theme": "SPORT", "nom": "Halle d'Athl\u00e9tisme St\u00e9phane Diagana", "soustheme": "Equipement sportif"}}, {"coordinates": {"lat": 45.823487026028914, "lon": 4.709103298387758}, "data": {"theme": "SPORT", "nom": "Golf de Salvagny", "soustheme": "Equipement sportif"}}, {"coordinates": {"lat": 45.78090076922477, "lon": 4.783711823948532}, "data": {"theme": "SPORT", "nom": "Stade de Rugby", "soustheme": "Equipement sportif"}}, {"coordinates": {"lat": 45.801697347304, "lon": 4.723741347225486}, "data": {"theme": "SPORT", "nom": "Parc de l'Hippodrome", "soustheme": "Equipement sportif"}}, {"coordinates": {"lat": 45.76634123122904, "lon": 4.9074713700406765}, "data": {"theme": "SPORT", "nom": "Salle de l'Astroballe", "soustheme": "Equipement sportif"}}, {"coordinates": {"lat": 45.79220085186141, "lon": 4.850751760600928}, "data": {"theme": "SPORT", "nom": "Piscine Municipale Isabelle Jouffroy", "soustheme": "Piscine"}}, {"coordinates": {"lat": 45.768078358599695, "lon": 5.013546313145511}, "data": {"theme": "SPORT", "nom": "OL Formation", "soustheme": "Equipement sportif"}}, {"coordinates": {"lat": 45.72285063116485, "lon": 4.9338930235678236}, "data": {"theme": "SPORT", "nom": "Stade ASPTT Lyon", "soustheme": "Equipement sportif"}}, {"coordinates": {"lat": 45.82328491245343, "lon": 4.748794633270057}, "data": {"theme": "SPORT", "nom": "Stade Bouliste du Paillet", "soustheme": "Equipement sportif"}}, {"coordinates": {"lat": 45.820390446933885, "lon": 4.763482398332092}, "data": {"theme": "SPORT", "nom": "Boulodrome de Dardilly", "soustheme": "Equipement sportif"}}, {"coordinates": {"lat": 45.7924066094632, "lon": 4.789683245852907}, "data": {"theme": "SPORT", "nom": "Tennis de Table Maurice Jourdan", "soustheme": "Equipement sportif"}}, {"coordinates": {"lat": 45.911705009936384, "lon": 4.779140774525008}, "data": {"theme": "SPORT", "nom": "Stade Municipale de Quincieux", "soustheme": "Equipement sportif"}}, {"coordinates": {"lat": 45.916753338165684, "lon": 4.774267961021527}, "data": {"theme": "SPORT", "nom": "Boulodrome Andr\u00e9 Jambon", "soustheme": "Equipement sportif"}}, {"coordinates": {"lat": 45.67218834792774, "lon": 4.862049072405972}, "data": {"theme": "SPORT", "nom": "Tennis de Feyzin", "soustheme": "Equipement sportif"}}, {"coordinates": {"lat": 45.816673694882425, "lon": 4.757254293477289}, "data": {"theme": "SPORT", "nom": "Tennis de Parsonge", "soustheme": "Equipement sportif"}}, {"coordinates": {"lat": 45.77813241990682, "lon": 4.924258293268449}, "data": {"theme": "SPORT", "nom": "Gymnase ENTPE", "soustheme": "Equipement sportif"}}, {"coordinates": {"lat": 45.76664037848797, "lon": 4.923258870740936}, "data": {"theme": "SPORT", "nom": "Hippodrome de Lyon Carr\u00e9 de Soie", "soustheme": "Equipement sportif"}}, {"coordinates": {"lat": 45.73516148134817, "lon": 4.765691663765347}, "data": {"theme": "SPORT", "nom": "Salle de l'Elan", "soustheme": "Equipement sportif"}}, {"coordinates": {"lat": 45.814364227595775, "lon": 4.889280443048733}, "data": {"theme": "SPORT", "nom": "Gymnase Les Alagniers", "soustheme": "Equipement sportif"}}, {"coordinates": {"lat": 45.811035862403656, "lon": 4.7645391560328045}, "data": {"theme": "SPORT", "nom": "Terrain de Foot de la Brocardi\u00e8re", "soustheme": "Equipement sportif"}}, {"coordinates": {"lat": 45.85946844312854, "lon": 4.844740455467102}, "data": {"theme": "SPORT", "nom": "Stade de la Cachette", "soustheme": "Equipement sportif"}}, {"coordinates": {"lat": 45.730459764243435, "lon": 4.903834281536831}, "data": {"theme": "SPORT", "nom": "Gymnase Antoine Muguet", "soustheme": "Equipement sportif"}}, {"coordinates": {"lat": 45.76333549792434, "lon": 4.953499296001417}, "data": {"theme": "SPORT", "nom": "Centre Nautique de D\u00e9cines", "soustheme": "Piscine"}}, {"coordinates": {"lat": 45.79958544623901, "lon": 4.7252703679986}, "data": {"theme": "SPORT", "nom": "Terrain du Tir \u00e0 l'Arc", "soustheme": "Equipement sportif"}}, {"coordinates": {"lat": 45.7003816666246, "lon": 4.829698563315771}, "data": {"theme": "SPORT", "nom": "Salle de Sport d'Aversa", "soustheme": "Equipement sportif"}}, {"coordinates": {"lat": 45.74309346519151, "lon": 4.711707510339026}, "data": {"theme": "SPORT", "nom": "Complexe Multisports OLYMPIE", "soustheme": "Equipement sportif"}}, {"coordinates": {"lat": 45.74309170517163, "lon": 4.712020105595785}, "data": {"theme": "SPORT", "nom": "Boulodrome Antoine GUICHERD", "soustheme": "Equipement sportif"}}, {"coordinates": {"lat": 45.66513042174972, "lon": 4.902757301220313}, "data": {"theme": "SPORT", "nom": "Gymnase Jean Jaur\u00e8s", "soustheme": "Equipement sportif"}}]