[{"coordinates": {"lat": 45.60991735846922, "lon": 4.793023787320307}, "data": {"theme": "URGENCE", "nom": "Police Municipale de Grigny", "soustheme": "Police Gendarmerie"}}, {"coordinates": {"lat": 45.67293714160593, "lon": 4.8222848970958285}, "data": {"theme": "URGENCE", "nom": "Police Municipale d'Irigny", "soustheme": "Police Gendarmerie"}}, {"coordinates": {"lat": 45.71413361237664, "lon": 4.8092486149122395}, "data": {"theme": "URGENCE", "nom": "Commissariat d'Oullins", "soustheme": "Police Gendarmerie"}}, {"coordinates": {"lat": 45.751776855659635, "lon": 4.825950305358233}, "data": {"theme": "URGENCE", "nom": "Police Municipale de Lyon 2", "soustheme": "Police Gendarmerie"}}, {"coordinates": {"lat": 45.758002108212885, "lon": 4.846898488979304}, "data": {"theme": "URGENCE", "nom": "Police Municipale de Lyon 3", "soustheme": "Police Gendarmerie"}}, {"coordinates": {"lat": 45.76740312624379, "lon": 4.848673795015868}, "data": {"theme": "URGENCE", "nom": "Police Municipale de Lyon 6", "soustheme": "Police Gendarmerie"}}, {"coordinates": {"lat": 45.753911192364036, "lon": 4.8437819646232345}, "data": {"theme": "URGENCE", "nom": "Police Municipale de Lyon 7 Annexe Guilloti\u00e8re", "soustheme": "Police Gendarmerie"}}, {"coordinates": {"lat": 45.761235505588374, "lon": 4.774650166500362}, "data": {"theme": "URGENCE", "nom": "Police Municipale de Tassin-la-Demi-Lune", "soustheme": "Police Gendarmerie"}}, {"coordinates": {"lat": 45.77464804428717, "lon": 4.830306301713028}, "data": {"theme": "URGENCE", "nom": "Police Nationale Lyon 4", "soustheme": "Police Gendarmerie"}}, {"coordinates": {"lat": 45.77541658490789, "lon": 4.8289960331266135}, "data": {"theme": "URGENCE", "nom": "Police Municipale de Lyon 4", "soustheme": "Police Gendarmerie"}}, {"coordinates": {"lat": 45.69854136362455, "lon": 4.883539796198529}, "data": {"theme": "URGENCE", "nom": "Police Municipale de V\u00e9nissieux", "soustheme": "Police Gendarmerie"}}, {"coordinates": {"lat": 45.69535170967187, "lon": 4.869082697983307}, "data": {"theme": "URGENCE", "nom": "Gendarmerie de V\u00e9nissieux", "soustheme": "Police Gendarmerie"}}, {"coordinates": {"lat": 45.76712060163536, "lon": 4.835604051885477}, "data": {"theme": "URGENCE", "nom": "Police Municipale de Lyon 1", "soustheme": "Police Gendarmerie"}}, {"coordinates": {"lat": 45.76000994437193, "lon": 4.772924679974004}, "data": {"theme": "URGENCE", "nom": "Gendarmerie de Tassin-la-Demi-Lune", "soustheme": "Police Gendarmerie"}}, {"coordinates": {"lat": 45.817214692696886, "lon": 4.847482960256196}, "data": {"theme": "URGENCE", "nom": "Centre d'Intervention de Collonges-au-Mont-d'Or", "soustheme": "Caserne de pompiers"}}, {"coordinates": {"lat": 45.776743630331815, "lon": 4.798457998253429}, "data": {"theme": "URGENCE", "nom": "Commissariat de Lyon 9", "soustheme": "Police Gendarmerie"}}, {"coordinates": {"lat": 45.74183552013427, "lon": 4.8744141476235}, "data": {"theme": "URGENCE", "nom": "Police Municipale de Lyon 8", "soustheme": "Police Gendarmerie"}}, {"coordinates": {"lat": 45.69381805390497, "lon": 4.93750622059595}, "data": {"theme": "URGENCE", "nom": "Commissariat de Saint-Priest", "soustheme": "Police Gendarmerie"}}, {"coordinates": {"lat": 45.74046197174246, "lon": 4.930581086215403}, "data": {"theme": "URGENCE", "nom": "Gendarmerie de Bron", "soustheme": "Police Gendarmerie"}}, {"coordinates": {"lat": 45.7320541124302, "lon": 4.913692928393494}, "data": {"theme": "URGENCE", "nom": "Commissariat de Bron", "soustheme": "Police Gendarmerie"}}, {"coordinates": {"lat": 45.770238179344, "lon": 4.801312095240046}, "data": {"theme": "URGENCE", "nom": "Police Municipale de Lyon 9", "soustheme": "Police Gendarmerie"}}, {"coordinates": {"lat": 45.6990571453244, "lon": 4.79441046867186}, "data": {"theme": "URGENCE", "nom": "Police Municipale de Saint-Genis-Laval", "soustheme": "Police Gendarmerie"}}, {"coordinates": {"lat": 45.68523106654781, "lon": 4.785539113780167}, "data": {"theme": "URGENCE", "nom": "Gendarmerie de Saint-Genis-Laval", "soustheme": "Police Gendarmerie"}}, {"coordinates": {"lat": 45.83455404598207, "lon": 4.771629682473613}, "data": {"theme": "URGENCE", "nom": "Gendarmerie de Limonest", "soustheme": "Police Gendarmerie"}}, {"coordinates": {"lat": 45.80382282699111, "lon": 4.821825661705486}, "data": {"theme": "URGENCE", "nom": "Centre d'Intervention de St Cyr au Mt D'Or et de St Didier a", "soustheme": "Caserne de pompiers"}}, {"coordinates": {"lat": 45.76154616003941, "lon": 4.837404302879723}, "data": {"theme": "URGENCE", "nom": "Police Municipale de Lyon 2 Annexe Thomassin", "soustheme": "Police Gendarmerie"}}, {"coordinates": {"lat": 45.760617906781896, "lon": 4.859340198776072}, "data": {"theme": "URGENCE", "nom": "Police Nationale de Lyon 3", "soustheme": "Police Gendarmerie"}}, {"coordinates": {"lat": 45.7614567767844, "lon": 4.856877340237335}, "data": {"theme": "URGENCE", "nom": "Police Municipale de Lyon 3 Annexe Part-Dieu", "soustheme": "Police Gendarmerie"}}, {"coordinates": {"lat": 45.73009834099297, "lon": 4.82983997017742}, "data": {"theme": "URGENCE", "nom": "Police Municipale de Lyon 7 Annexe Gerland", "soustheme": "Police Gendarmerie"}}, {"coordinates": {"lat": 45.784199574677295, "lon": 4.794256476484194}, "data": {"theme": "URGENCE", "nom": "Police Municipale de Lyon 9 Annexe Duch\u00e8re", "soustheme": "Police Gendarmerie"}}, {"coordinates": {"lat": 45.75638384563305, "lon": 4.8136680082409224}, "data": {"theme": "URGENCE", "nom": "Commissariat de Lyon 5", "soustheme": "Police Gendarmerie"}}, {"coordinates": {"lat": 45.74914590558127, "lon": 4.756507036343637}, "data": {"theme": "URGENCE", "nom": "Gendarmerie de Francheville", "soustheme": "Police Gendarmerie"}}, {"coordinates": {"lat": 45.72809885759303, "lon": 4.809035634811601}, "data": {"theme": "URGENCE", "nom": "Police Municipale de La Mulati\u00e8re", "soustheme": "Police Gendarmerie"}}, {"coordinates": {"lat": 45.73541695143183, "lon": 4.803932214250211}, "data": {"theme": "URGENCE", "nom": "Police Municipale de Sainte-Foy-Les-Lyon", "soustheme": "Police Gendarmerie"}}, {"coordinates": {"lat": 45.761352846684524, "lon": 4.826349752909288}, "data": {"theme": "URGENCE", "nom": "Police Municipale de Lyon 5", "soustheme": "Police Gendarmerie"}}, {"coordinates": {"lat": 45.750879171666185, "lon": 4.830690168039554}, "data": {"theme": "URGENCE", "nom": "Police Nationale de Lyon 2", "soustheme": "Police Gendarmerie"}}, {"coordinates": {"lat": 45.74695590249331, "lon": 4.819745483096314}, "data": {"theme": "URGENCE", "nom": "Gendarmerie de Lyon Brigade Lyon Sud", "soustheme": "Police Gendarmerie"}}, {"coordinates": {"lat": 45.817485866739574, "lon": 4.866987532158606}, "data": {"theme": "URGENCE", "nom": "Gendarmerie de Sathonay-Camp", "soustheme": "Police Gendarmerie"}}, {"coordinates": {"lat": 45.703798288784824, "lon": 4.825057047313615}, "data": {"theme": "URGENCE", "nom": "Police Municipale de Pierre-B\u00e9nite", "soustheme": "Police Gendarmerie"}}, {"coordinates": {"lat": 45.71399509223383, "lon": 4.807445033760196}, "data": {"theme": "URGENCE", "nom": "Police Municipale d'Oullins", "soustheme": "Police Gendarmerie"}}, {"coordinates": {"lat": 45.77661528501358, "lon": 4.921234147198446}, "data": {"theme": "URGENCE", "nom": "Commissariat de Vaulx-en-Velin", "soustheme": "Police Gendarmerie"}}, {"coordinates": {"lat": 45.81907329705206, "lon": 4.900951786056968}, "data": {"theme": "URGENCE", "nom": "Police Nationale de Rillieux-la-Pape", "soustheme": "Police Gendarmerie"}}, {"coordinates": {"lat": 45.81217286108891, "lon": 4.887467264022967}, "data": {"theme": "URGENCE", "nom": "Police Municipale de Rillieux-la-Pape", "soustheme": "Police Gendarmerie"}}, {"coordinates": {"lat": 45.83400342376937, "lon": 4.854353037229996}, "data": {"theme": "URGENCE", "nom": "Gendarmerie de Fontaines-sur-Sa\u00f4ne", "soustheme": "Police Gendarmerie"}}, {"coordinates": {"lat": 45.66672615074002, "lon": 4.8497763525835245}, "data": {"theme": "URGENCE", "nom": "Police Municipale de Feyzin", "soustheme": "Police Gendarmerie"}}, {"coordinates": {"lat": 45.71105746961612, "lon": 4.852878419005608}, "data": {"theme": "URGENCE", "nom": "Police Municipale de Saint-Fons", "soustheme": "Police Gendarmerie"}}, {"coordinates": {"lat": 45.74228923016326, "lon": 4.971833642907486}, "data": {"theme": "URGENCE", "nom": "Police Municipale de Chassieu", "soustheme": "Police Gendarmerie"}}, {"coordinates": {"lat": 45.66623585805406, "lon": 4.903737590766501}, "data": {"theme": "URGENCE", "nom": "Gendarmerie de Corbas", "soustheme": "Police Gendarmerie"}}, {"coordinates": {"lat": 45.67122975274543, "lon": 4.90410807290557}, "data": {"theme": "URGENCE", "nom": "Police Municipale de Corbas", "soustheme": "Police Gendarmerie"}}, {"coordinates": {"lat": 45.79561352483079, "lon": 4.79047459749886}, "data": {"theme": "URGENCE", "nom": "Police Municipale de Champagne-au-Mont-d'Or", "soustheme": "Police Gendarmerie"}}, {"coordinates": {"lat": 45.813507127699054, "lon": 4.751439581479329}, "data": {"theme": "URGENCE", "nom": "Gendarmerie de Dardilly", "soustheme": "Police Gendarmerie"}}, {"coordinates": {"lat": 45.7810411615582, "lon": 4.705293363436382}, "data": {"theme": "URGENCE", "nom": "Police Municipale de Marcy l'Etoile", "soustheme": "Police Gendarmerie"}}, {"coordinates": {"lat": 45.6616819947643, "lon": 4.956808171668179}, "data": {"theme": "URGENCE", "nom": "Police Municipale de Mions", "soustheme": "Police Gendarmerie"}}, {"coordinates": {"lat": 45.86795855804917, "lon": 4.841909235347608}, "data": {"theme": "URGENCE", "nom": "Gendarmerie de Neuville-sur-Sa\u00f4ne", "soustheme": "Police Gendarmerie"}}, {"coordinates": {"lat": 45.77606479948976, "lon": 4.775179761057025}, "data": {"theme": "URGENCE", "nom": "Police Nationale", "soustheme": "Police Gendarmerie"}}, {"coordinates": {"lat": 45.74276384704472, "lon": 4.859525612420743}, "data": {"theme": "URGENCE", "nom": "H\u00f4tel de Police de Lyon", "soustheme": "Police Gendarmerie"}}, {"coordinates": {"lat": 45.755863521063574, "lon": 4.834509634784003}, "data": {"theme": "URGENCE", "nom": "Commissariat de Lyon 2", "soustheme": "Police Gendarmerie"}}, {"coordinates": {"lat": 45.77479906206436, "lon": 4.8300951294787335}, "data": {"theme": "URGENCE", "nom": "Commissariat de Lyon 4", "soustheme": "Police Gendarmerie"}}, {"coordinates": {"lat": 45.73796507519113, "lon": 4.762125977219943}, "data": {"theme": "URGENCE", "nom": "Centre d'Intervention de Francheville", "soustheme": "Caserne de pompiers"}}, {"coordinates": {"lat": 45.82955661668066, "lon": 4.85602376441017}, "data": {"theme": "URGENCE", "nom": "Centre d'Intervention des 2 Fontaines", "soustheme": "Caserne de pompiers"}}, {"coordinates": {"lat": 45.89596175368881, "lon": 4.819314017020386}, "data": {"theme": "URGENCE", "nom": "Centre d'Intervention de Genay-Neuville", "soustheme": "Caserne de pompiers"}}, {"coordinates": {"lat": 45.824771749760636, "lon": 4.715196861996873}, "data": {"theme": "URGENCE", "nom": "Centre d'Intervention de La Tour-de-Salvagny", "soustheme": "Caserne de pompiers"}}, {"coordinates": {"lat": 45.77269253538605, "lon": 4.7782401475122125}, "data": {"theme": "URGENCE", "nom": "Centre d'Intervention d'Ecully", "soustheme": "Caserne de pompiers"}}, {"coordinates": {"lat": 45.734486147450504, "lon": 4.972229043699765}, "data": {"theme": "URGENCE", "nom": "Centre d'Intervention de Chassieu", "soustheme": "Caserne de pompiers"}}, {"coordinates": {"lat": 45.831431522303156, "lon": 4.8803340601378595}, "data": {"theme": "URGENCE", "nom": "Centre d'Intervention de Sathonay-Village", "soustheme": "Caserne de pompiers"}}, {"coordinates": {"lat": 45.6834354658642, "lon": 4.862164417524155}, "data": {"theme": "URGENCE", "nom": "Centre d'Intervention de Feyzin", "soustheme": "Caserne de pompiers"}}, {"coordinates": {"lat": 45.79065147170962, "lon": 5.042521247374867}, "data": {"theme": "URGENCE", "nom": "Centre d'Intervention de Jonage", "soustheme": "Caserne de pompiers"}}, {"coordinates": {"lat": 45.85141870237005, "lon": 4.874201585825403}, "data": {"theme": "URGENCE", "nom": "Centre d'Intervention de Cailloux-sur-Fontaines", "soustheme": "Caserne de pompiers"}}, {"coordinates": {"lat": 45.814416054859294, "lon": 4.820475069647694}, "data": {"theme": "URGENCE", "nom": "Centre d'Intervention de Saint-Cyr-au-Mont-d'Or", "soustheme": "Caserne de pompiers"}}, {"coordinates": {"lat": 45.7329821499404, "lon": 4.802385057981701}, "data": {"theme": "URGENCE", "nom": "Centre d'Intervention de Sainte-Foy-les-Lyon", "soustheme": "Caserne de pompiers"}}, {"coordinates": {"lat": 45.86025859786154, "lon": 4.8017141236867324}, "data": {"theme": "URGENCE", "nom": "Centre d'Intervention de Poleymieux-au-Mont-d'Or", "soustheme": "Caserne de pompiers"}}, {"coordinates": {"lat": 45.76293535514377, "lon": 4.967472160959599}, "data": {"theme": "URGENCE", "nom": "Centre d'Intervention de D\u00e9cines-Charpieu", "soustheme": "Caserne de pompiers"}}, {"coordinates": {"lat": 45.81967519939158, "lon": 4.891632549012257}, "data": {"theme": "URGENCE", "nom": "Centre d'Intervention de Rillieux-La-Pape", "soustheme": "Caserne de pompiers"}}, {"coordinates": {"lat": 45.75659592248652, "lon": 4.780548263971186}, "data": {"theme": "URGENCE", "nom": "Centre d'Intervention de Tassin-la-Demi-Lune", "soustheme": "Caserne de pompiers"}}, {"coordinates": {"lat": 45.70012251542059, "lon": 4.822316233241731}, "data": {"theme": "URGENCE", "nom": "Centre d'Intervention de Pierre-B\u00e9nite", "soustheme": "Caserne de pompiers"}}, {"coordinates": {"lat": 45.716224627991274, "lon": 4.913391667067616}, "data": {"theme": "URGENCE", "nom": "Centre d'Intervention de Saint-Priest", "soustheme": "Caserne de pompiers"}}, {"coordinates": {"lat": 45.76572683181542, "lon": 4.90558429998421}, "data": {"theme": "URGENCE", "nom": "Centre d'Intervention de Villeurbanne", "soustheme": "Caserne de pompiers"}}, {"coordinates": {"lat": 45.73181374335399, "lon": 4.828587950700688}, "data": {"theme": "URGENCE", "nom": "Centre d'Intervention de Lyon Gerland", "soustheme": "Caserne de pompiers"}}, {"coordinates": {"lat": 45.79062054356336, "lon": 4.797896613571612}, "data": {"theme": "URGENCE", "nom": "Centre d'Intervention de Lyon Duch\u00e8re", "soustheme": "Caserne de pompiers"}}, {"coordinates": {"lat": 45.762808036739855, "lon": 4.8435630539630035}, "data": {"theme": "URGENCE", "nom": "Centre d'Intervention de Lyon Corneille", "soustheme": "Caserne de pompiers"}}, {"coordinates": {"lat": 45.74996273288473, "lon": 4.848392571932146}, "data": {"theme": "URGENCE", "nom": "Centre d'Intervention de Lyon Rochat", "soustheme": "Caserne de pompiers"}}, {"coordinates": {"lat": 45.783930054922266, "lon": 4.821504968663862}, "data": {"theme": "URGENCE", "nom": "Centre d'Intervention de Lyon Croix-Rousse", "soustheme": "Caserne de pompiers"}}, {"coordinates": {"lat": 45.77894210566531, "lon": 4.877872684260789}, "data": {"theme": "URGENCE", "nom": "Centre d'Intervention Lieutenant Bernard Pauletto", "soustheme": "Caserne de pompiers"}}, {"coordinates": {"lat": 45.647051993835646, "lon": 4.812225224824494}, "data": {"theme": "URGENCE", "nom": "Police Municipale de Vernaison", "soustheme": "Police Gendarmerie"}}, {"coordinates": {"lat": 45.75204317004728, "lon": 4.861872037789659}, "data": {"theme": "URGENCE", "nom": "H\u00f4tel de Police Lyon 3", "soustheme": "Police Gendarmerie"}}, {"coordinates": {"lat": 45.59941068128621, "lon": 4.768316204103615}, "data": {"theme": "URGENCE", "nom": "Gendarmerie de Givors", "soustheme": "Police Gendarmerie"}}, {"coordinates": {"lat": 45.74365290578878, "lon": 4.722570813037931}, "data": {"theme": "URGENCE", "nom": "Police Minicipale de Craponne", "soustheme": "Police Gendarmerie"}}, {"coordinates": {"lat": 45.60031633152683, "lon": 4.767071246992975}, "data": {"theme": "URGENCE", "nom": "Centre d'Intervention de Givors", "soustheme": "Caserne de pompiers"}}, {"coordinates": {"lat": 45.5853977431008, "lon": 4.767492142621191}, "data": {"theme": "URGENCE", "nom": "Commissariat de Givors", "soustheme": "Police Gendarmerie"}}, {"coordinates": {"lat": 45.78392742130365, "lon": 4.735703807367462}, "data": {"theme": "URGENCE", "nom": "Police Municipale", "soustheme": "Police Gendarmerie"}}, {"coordinates": {"lat": 45.65012053351166, "lon": 4.801849533629592}, "data": {"theme": "URGENCE", "nom": "Centre d'Intervention de Charly Vernaison", "soustheme": "Caserne de pompiers"}}, {"coordinates": {"lat": 45.76393829969914, "lon": 5.004206967354622}, "data": {"theme": "URGENCE", "nom": "Commissariat de Meyzieu", "soustheme": "Police Gendarmerie"}}, {"coordinates": {"lat": 45.76873362278952, "lon": 4.83691991271674}, "data": {"theme": "URGENCE", "nom": "Commissariat Lyon 1", "soustheme": "Police Gendarmerie"}}, {"coordinates": {"lat": 45.76815857309993, "lon": 4.852376051152659}, "data": {"theme": "URGENCE", "nom": "Commissariat de Lyon 6", "soustheme": "Police Gendarmerie"}}, {"coordinates": {"lat": 45.768774210542475, "lon": 4.885414628026541}, "data": {"theme": "URGENCE", "nom": "Commissariat de Police", "soustheme": "Police Gendarmerie"}}, {"coordinates": {"lat": 45.756539938908645, "lon": 4.845859005423676}, "data": {"theme": "URGENCE", "nom": "Commissariat de Lyon 3", "soustheme": "Police Gendarmerie"}}, {"coordinates": {"lat": 45.770678157998134, "lon": 4.988151324415898}, "data": {"theme": "URGENCE", "nom": "Centre d'Intervention de Meyzieu", "soustheme": "Caserne de pompiers"}}, {"coordinates": {"lat": 45.648999615502575, "lon": 4.794352847900663}, "data": {"theme": "URGENCE", "nom": "Police Municipale de Charly", "soustheme": "Police Gendarmerie"}}, {"coordinates": {"lat": 45.83571486899097, "lon": 4.770970508285585}, "data": {"theme": "URGENCE", "nom": "Police Munipale de Limonest", "soustheme": "Police Gendarmerie"}}, {"coordinates": {"lat": 45.76716391414231, "lon": 4.956913256987931}, "data": {"theme": "URGENCE", "nom": "Police Municipale de D\u00e9cines-Charpieu", "soustheme": "Police Gendarmerie"}}, {"coordinates": {"lat": 45.75631057237414, "lon": 4.725905294940297}, "data": {"theme": "URGENCE", "nom": "Police Municipale de Saint-Genis-les-Olli\u00e8res", "soustheme": "Police Gendarmerie"}}, {"coordinates": {"lat": 45.76682948981058, "lon": 4.771967861357351}, "data": {"theme": "URGENCE", "nom": "Police Technique et Scientifique", "soustheme": "Police Gendarmerie"}}, {"coordinates": {"lat": 45.77137976093881, "lon": 4.954127162725521}, "data": {"theme": "URGENCE", "nom": "Police Nationale de D\u00e9cines-Charpieu", "soustheme": "Police Gendarmerie"}}, {"coordinates": {"lat": 45.766031384494696, "lon": 4.878691674498051}, "data": {"theme": "URGENCE", "nom": "Police Municipale de Villeurbanne", "soustheme": "Police Gendarmerie"}}, {"coordinates": {"lat": 45.733816622524756, "lon": 4.9094729708131}, "data": {"theme": "URGENCE", "nom": "Police Municipale de Bron", "soustheme": "Police Gendarmerie"}}, {"coordinates": {"lat": 45.609913304634745, "lon": 4.793014911578419}, "data": {"theme": "URGENCE", "nom": "Police Municipale de Grigny", "soustheme": "Police Gendarmerie"}}, {"coordinates": {"lat": 45.870672502824206, "lon": 4.832437535733935}, "data": {"theme": "URGENCE", "nom": "Police Municipale d'Albigny-sur-Sa\u00f4ne", "soustheme": "Police Gendarmerie"}}, {"coordinates": {"lat": 45.79694436555875, "lon": 4.842382821333961}, "data": {"theme": "URGENCE", "nom": "Police Municipale de Caluire-et-Cuire", "soustheme": "Police Gendarmerie"}}, {"coordinates": {"lat": 45.91649307046768, "lon": 4.772926461344562}, "data": {"theme": "URGENCE", "nom": "Centre d'Intervention de Quincieux", "soustheme": "Caserne de pompiers"}}, {"coordinates": {"lat": 45.66668515539063, "lon": 4.953729495979678}, "data": {"theme": "URGENCE", "nom": "Gendarmerie de Mions", "soustheme": "Police Gendarmerie"}}, {"coordinates": {"lat": 45.80614702727218, "lon": 4.753895537886781}, "data": {"theme": "URGENCE", "nom": "Police Municipale de Dardilly", "soustheme": "Police Gendarmerie"}}, {"coordinates": {"lat": 45.79696434289747, "lon": 4.842391220606887}, "data": {"theme": "URGENCE", "nom": "Commissariat de Caluire-et-Cuire", "soustheme": "Police Gendarmerie"}}, {"coordinates": {"lat": 45.77591326077784, "lon": 4.778673589812202}, "data": {"theme": "URGENCE", "nom": "Police Municipale d'Ecully", "soustheme": "Police Gendarmerie"}}, {"coordinates": {"lat": 45.735648459544365, "lon": 4.764416330896362}, "data": {"theme": "URGENCE", "nom": "Police Municipale de Francheville", "soustheme": "Police Gendarmerie"}}, {"coordinates": {"lat": 45.77845145676975, "lon": 4.92015445676356}, "data": {"theme": "URGENCE", "nom": "Police Municipale de Vaulx-en-Velin", "soustheme": "Police Gendarmerie"}}, {"coordinates": {"lat": 45.69706583987728, "lon": 4.885857905478608}, "data": {"theme": "URGENCE", "nom": "Commissariat de V\u00e9nissieux", "soustheme": "Police Gendarmerie"}}, {"coordinates": {"lat": 45.897342067317744, "lon": 4.840470020395985}, "data": {"theme": "URGENCE", "nom": "Police Municipale de Genay", "soustheme": "Police Gendarmerie"}}, {"coordinates": {"lat": 45.796633901608594, "lon": 5.047435760637264}, "data": {"theme": "URGENCE", "nom": "Police Municipale de Jonage", "soustheme": "Police Gendarmerie"}}, {"coordinates": {"lat": 45.81396338494042, "lon": 4.714726691406105}, "data": {"theme": "URGENCE", "nom": "Police Municipale de La Tour de Salvagny", "soustheme": "Police Gendarmerie"}}, {"coordinates": {"lat": 45.74649672143202, "lon": 4.841797379501561}, "data": {"theme": "URGENCE", "nom": "Police Municipale de Lyon 7", "soustheme": "Police Gendarmerie"}}, {"coordinates": {"lat": 45.746342748229345, "lon": 4.841383354697454}, "data": {"theme": "URGENCE", "nom": "Commissariat de Lyon 7", "soustheme": "Police Gendarmerie"}}, {"coordinates": {"lat": 45.73451859210938, "lon": 4.872916158270975}, "data": {"theme": "URGENCE", "nom": "Commissariat de Lyon 8", "soustheme": "Police Gendarmerie"}}, {"coordinates": {"lat": 45.765762481825725, "lon": 5.005643863962655}, "data": {"theme": "URGENCE", "nom": "Police Municipale de Meyzieu", "soustheme": "Police Gendarmerie"}}, {"coordinates": {"lat": 45.8777633889783, "lon": 4.840173602627209}, "data": {"theme": "URGENCE", "nom": "Police Municipale de Neuville-sur-Sa\u00f4ne", "soustheme": "Police Gendarmerie"}}, {"coordinates": {"lat": 45.815740278415326, "lon": 4.817230080020192}, "data": {"theme": "URGENCE", "nom": "Police Municipale de Saint-Cyr-au-Mont-d'Or", "soustheme": "Police Gendarmerie"}}, {"coordinates": {"lat": 45.811607401704194, "lon": 4.797823094384383}, "data": {"theme": "URGENCE", "nom": "Police Municipale de Saint-Didier-au-Mont-d'Or", "soustheme": "Police Gendarmerie"}}, {"coordinates": {"lat": 45.69492505704428, "lon": 4.935704813295026}, "data": {"theme": "URGENCE", "nom": "Police Municipale de Saint-Priest", "soustheme": "Police Gendarmerie"}}, {"coordinates": {"lat": 45.63976404485931, "lon": 4.840985310744807}, "data": {"theme": "URGENCE", "nom": "Police Municipale de Solaize", "soustheme": "Police Gendarmerie"}}, {"coordinates": {"lat": 45.78217911488566, "lon": 4.848085499236739}, "data": {"theme": "URGENCE", "nom": "Interpol", "soustheme": "Police Gendarmerie"}}, {"coordinates": {"lat": 45.66996423473733, "lon": 4.9407666862576685}, "data": {"theme": "URGENCE", "nom": "Centre d'Intervention de Mions", "soustheme": "Caserne de pompiers"}}, {"coordinates": {"lat": 45.796501830838324, "lon": 5.049734097628095}, "data": {"theme": "URGENCE", "nom": "Gendarmerie de Jonage", "soustheme": "Police Gendarmerie"}}, {"coordinates": {"lat": 45.775670019171024, "lon": 4.80150081075466}, "data": {"theme": "URGENCE", "nom": "Police Municipale de Lyon 9", "soustheme": "Police Gendarmerie"}}, {"coordinates": {"lat": 45.786733785284255, "lon": 4.713369566737353}, "data": {"theme": "URGENCE", "nom": "Centre d'Intervention de Marcy-Charbonni\u00e8res", "soustheme": "Caserne de pompiers"}}, {"coordinates": {"lat": 45.669962013596084, "lon": 4.82421583032629}, "data": {"theme": "URGENCE", "nom": "Gendarmerie d'Irigny", "soustheme": "Police Gendarmerie"}}]