[{"data": {"address": "Rue Salvador Allende", "address2": "Angle avenue du Lys Orang\u00e9, au pied de la", "name": "Tonkin / Allende", "bike_stands": "10", "pole": "centre quartier, itin\u00e9raire cyclable"}, "coordinates": {"lat": 4.862647581329799, "lon": 45.776221014708135}}, {"data": {"address": "Avenue Jules Jusserand", "address2": "angle cours Gambetta", "name": "Gambetta / Jusserand", "bike_stands": "13", "pole": "bureaux, itin\u00e9raire cyclable"}, "coordinates": {"lat": 4.855582849132956, "lon": 45.75113158046235}}, {"data": {"address": "Place Bir Hakeim", "address2": "Au niveau rue Duvivier", "name": "Place Bir Hakeim", "bike_stands": "13", "pole": "maillage"}, "coordinates": {"lat": 4.855710148688797, "lon": 45.75259214371396}}, {"data": {"address": "Rue R\u00e9camier", "address2": "angle rue T\u00eate d'Or", "name": "R\u00e9camier / T\u00eate d'Or", "bike_stands": "16", "pole": "maillage"}, "coordinates": {"lat": 4.853492129706195, "lon": 45.764333697561206}}, {"data": {"address": "Place Lebret", "address2": "c\u00f4t\u00e9 route de Vienne", "name": "Place Lebret", "bike_stands": "16", "pole": "coeur quartier"}, "coordinates": {"lat": 4.85299655686574, "lon": 45.73561399064821}}, {"data": {"address": "rue Professeur Beauvisage", "address2": "angle avenue des Etats-Unis", "name": "Place 8 mai 1945", "bike_stands": "20", "pole": "coeur quartier, itin\u00e9raires cyclables"}, "coordinates": {"lat": 4.868284259333227, "lon": 45.72974560058478}}, {"data": {"address": "rue de Gerland", "address2": "angle rue Challemel Lacour", "name": "Rue de Gerland / Challemel Lacour", "bike_stands": "12", "pole": "maillage"}, "coordinates": {"lat": 4.838138438340417, "lon": 45.72980586520876}}, {"data": {"address": "Boulevard des Belges", "address2": "angle rue Morellet", "name": "Bd des Belges / Museum", "bike_stands": "15", "pole": "mus\u00e9e Guimet, itin\u00e9raire cyclable"}, "coordinates": {"lat": 4.848382345964661, "lon": 45.77452697219786}}, {"data": {"address": "Rue de la Poudrette", "address2": "", "name": "La Soie", "bike_stands": "25", "pole": "P\u00f4le multimodal de la Soie"}, "coordinates": {"lat": 4.920603945688605, "lon": 45.760813194682925}}, {"data": {"address": "Face au 106 avenue F\u00e9lix Faure", "address2": "", "name": "ZAC de la Buire", "bike_stands": "35", "pole": ""}, "coordinates": {"lat": 4.859863339774901, "lon": 45.753799458227306}}, {"data": {"address": "5 au 7 rue du Professeur Rollet", "address2": "Devant entr\u00e9e principale universit\u00e9 Lyon 3", "name": "Universit\u00e9 Lyon III", "bike_stands": "26", "pole": "Universit\u00e9 Lyon 3"}, "coordinates": {"lat": 4.861541779364255, "lon": 45.748539566259865}}, {"data": {"address": "30 rue Renan", "address2": "", "name": "Servant / Jaboulay", "bike_stands": "16", "pole": "M\u00e9tro B, future halte TER, coeur quartier, mairie"}, "coordinates": {"lat": 4.842012961917595, "lon": 45.74675907969272}}, {"data": {"address": "2, Avenue des Arts", "address2": "", "name": "La Doua / Avenue des Arts", "bike_stands": "30", "pole": "Campus de la Doua"}, "coordinates": {"lat": 4.871273110410492, "lon": 45.78351367931986}}, {"data": {"address": "18 rue Dugas montbel", "address2": "", "name": "Place des Archives", "bike_stands": "30", "pole": ""}, "coordinates": {"lat": 4.824925863189276, "lon": 45.74792147946889}}, {"data": {"address": "rue du Professeur Paufique", "address2": "Angle rue de la R\u00e9publique", "name": "R\u00e9publique / Paufique", "bike_stands": "20", "pole": "commerces"}, "coordinates": {"lat": 4.83539920228165, "lon": 45.759380956346526}}, {"data": {"address": "rue Roquette", "address2": "angle rue de Bourgogne", "name": "place Valmy", "bike_stands": "16", "pole": "m\u00e9tro D, m\u00e9diath\u00e8que"}, "coordinates": {"lat": 4.805317980911981, "lon": 45.775641829444254}}, {"data": {"address": "rue Roger salengro", "address2": "", "name": "Salengro / Vaillant", "bike_stands": "24", "pole": "centre quartier, itin\u00e9raire cyclable"}, "coordinates": {"lat": 4.879673281300416, "lon": 45.77836820800488}}, {"data": {"address": "Rue Tronchet", "address2": "angle rue Anatole France", "name": "Tronchet / Anatole France", "bike_stands": "10", "pole": "Lyc\u00e9e du Parc, piscine Tronchet"}, "coordinates": {"lat": 4.856779667477086, "lon": 45.77073256054904}}, {"data": {"address": "Rue de France", "address2": "Angle cours Emile Zola", "name": "IUT", "bike_stands": "16", "pole": "IUT maison des sports, maison de l'image, centre culturel"}, "coordinates": {"lat": 4.887123720059193, "lon": 45.76807042021458}}, {"data": {"address": "117 boulevard Yves Farge", "address2": "", "name": "Ayasse/Farge", "bike_stands": "20", "pole": "Centre commercial, logements, itin\u00e9raire cyclable"}, "coordinates": {"lat": 4.827719155961223, "lon": 45.7356738897812}}, {"data": {"address": "Rue Edmond Locard", "address2": "", "name": "Champvert", "bike_stands": "20", "pole": "Biblioth\u00e8que, jardin public"}, "coordinates": {"lat": 4.796626764916889, "lon": 45.759797191693984}}, {"data": {"address": "Place Puvis de Chavannes", "address2": "Angle rue Vend\u00f4me", "name": "Place Puvis de Chavannes", "bike_stands": "10", "pole": ""}, "coordinates": {"lat": 4.844603635748356, "lon": 45.7717570855734}}, {"data": {"address": "Rue Docteur Dolard", "address2": "Angle rue 4 septembre", "name": "Nouveau Mus\u00e9e D'Art Contemporain", "bike_stands": "15", "pole": "Nouveau Mus\u00e9e D'Art Contemporain"}, "coordinates": {"lat": 4.872462262056682, "lon": 45.761535426174646}}, {"data": {"address": "Rue Marcel Gabriel Rivi\u00e8re", "address2": "", "name": "R\u00e9publique / Childebert", "bike_stands": "16", "pole": "Commerces, h\u00f4tel Dieu, place, Parking"}, "coordinates": {"lat": 4.835757223565968, "lon": 45.7598793920463}}, {"data": {"address": "Place Carnot", "address2": "angle rue G\u00e9n\u00e9ral Plessier", "name": "Carnot / Henri IV", "bike_stands": "30", "pole": "Place Carnot"}, "coordinates": {"lat": 4.826890944673127, "lon": 45.75123038409837}}, {"data": {"address": "183 rue Andr\u00e9 Philip", "address2": "", "name": "Les Halles", "bike_stands": "18", "pole": "Commerces, coeur de quartier"}, "coordinates": {"lat": 4.850486257391266, "lon": 45.761518927436406}}, {"data": {"address": "Place de la Croix-Rousse", "address2": "A proximit\u00e9 de la Grande Rue", "name": "Place de la Croix-Rousse", "bike_stands": "21", "pole": "Place de le Croix-Rousse, commerces, M\u00e9tro"}, "coordinates": {"lat": 4.832501030153131, "lon": 45.776063026901554}}, {"data": {"address": "Avenue du Cdt Lherminier", "address2": "Angle Rue de Pressens\u00e9", "name": "Pressens\u00e9 / Bienvenus", "bike_stands": "10", "pole": "itin\u00e9raires cyclables"}, "coordinates": {"lat": 4.884997681980714, "lon": 45.77117232550429}}, {"data": {"address": "Rue de la Part-Dieu", "address2": "face Place Voltaire", "name": "Place Guichard", "bike_stands": "20", "pole": "m\u00e9tro B, coeur quartier"}, "coordinates": {"lat": 4.848065846108474, "lon": 45.7596542197415}}, {"data": {"address": "Cours de la Libert\u00e9", "address2": "angle rue de la Part-Dieu", "name": "Libert\u00e9 / Rue Part Dieu", "bike_stands": "18", "pole": "tram, commerces, itin\u00e9raire cyclable"}, "coordinates": {"lat": 4.842227587021121, "lon": 45.759342266336446}}, {"data": {"address": "93 av de l'Europe", "address2": "", "name": "Place Mend\u00e8s France", "bike_stands": "20", "pole": "Tramway, place, Commerces"}, "coordinates": {"lat": 4.8595210870363, "lon": 45.73992705871348}}, {"data": {"address": "Place des Compagnons de la chanson", "address2": "angle des Aqueducs", "name": "Saint Just / Compagnon de la chanson", "bike_stands": "18", "pole": "funiculaire, coeur quartier"}, "coordinates": {"lat": 4.796612178889425, "lon": 45.7565273368784}}, {"data": {"address": "Rue Maupin", "address2": "Entre Herriot et R\u00e9publique", "name": "R\u00e9publique / Archers", "bike_stands": "15", "pole": "commerces"}, "coordinates": {"lat": 4.834076515413146, "lon": 45.75873908219385}}, {"data": {"address": "6 rue Jean de Tournes", "address2": "", "name": "Jacobins", "bike_stands": "16", "pole": "Coeur quartier, commerces, site"}, "coordinates": {"lat": 4.834287850258129, "lon": 45.76074578048154}}, {"data": {"address": "Face 31, Rue des Bienvenus", "address2": "", "name": "Ch\u00e2teau Gaillard / Filature", "bike_stands": "15", "pole": ""}, "coordinates": {"lat": 4.884244285772836, "lon": 45.777864915253566}}, {"data": {"address": "rue de la Ferrandi\u00e8re", "address2": "rue de la R\u00e9publique", "name": "R\u00e9publique / Ferrandi\u00e8re", "bike_stands": "15", "pole": "m\u00e9tro A, commerces"}, "coordinates": {"lat": 4.835959925076834, "lon": 45.762189982346754}}, {"data": {"address": "rue Tissot face 2", "address2": "angle rue de Bourgogne", "name": "Th\u00e9\u00e2tre Nouvelle G\u00e9n\u00e9ration", "bike_stands": "16", "pole": "maillage"}, "coordinates": {"lat": 4.803348453334923, "lon": 45.77720719299598}}, {"data": {"address": "294, rue Francis de Pr\u00e9ssens\u00e9", "address2": "", "name": "Pr\u00e9ssens\u00e9 / 8 mai 1945", "bike_stands": "16", "pole": "itin\u00e9raires cyclables"}, "coordinates": {"lat": 4.896723707091349, "lon": 45.76918019445722}}, {"data": {"address": "Avenue de Verguin", "address2": "devant l'entr\u00e9e du parc", "name": "Parc T\u00eate d'Or / Lyc\u00e9e du Parc", "bike_stands": "20", "pole": "Parc de la T\u00eate d'Or, lyc\u00e9e du Parc"}, "coordinates": {"lat": 4.856326781358819, "lon": 45.77291139744828}}, {"data": {"address": "avenue Mermoz", "address2": "angle avenue Michelet", "name": "Mermoz / Michelet", "bike_stands": "12", "pole": "Cit\u00e9 des Entreprises, itin\u00e9raire cyclable"}, "coordinates": {"lat": 4.878632059169187, "lon": 45.73323738919139}}, {"data": {"address": "Avenue Galline", "address2": "Angle avenue de Condorcet", "name": "Condorcet / Galline", "bike_stands": "15", "pole": "maillage (habitat dense)"}, "coordinates": {"lat": 4.867114921992885, "lon": 45.776453573141325}}, {"data": {"address": "Place Charles Hernu", "address2": "", "name": "Charpennes", "bike_stands": "35", "pole": "m\u00e9tro A B, tram, centre quartier, itin\u00e9raire cyclable"}, "coordinates": {"lat": 4.863132722360224, "lon": 45.77022676914935}}, {"data": {"address": "rue Philippe de Lassalle", "address2": "angle rue Pillement", "name": "Lasalle / Dangon", "bike_stands": "13", "pole": "maillage"}, "coordinates": {"lat": 4.820491651894622, "lon": 45.77740989199174}}, {"data": {"address": "16 rue des Remparts d'Ainay", "address2": "Angle Victor Hugo", "name": "Hugo / Ainay", "bike_stands": "16", "pole": ""}, "coordinates": {"lat": 4.82964894792985, "lon": 45.75307986124447}}, {"data": {"address": "34 rue Antoine Lumi\u00e8re", "address2": "", "name": "Martini\u00e8re Monplaisir", "bike_stands": "20", "pole": "Lyc\u00e9e technique"}, "coordinates": {"lat": 4.868206545176992, "lon": 45.74084726438675}}, {"data": {"address": "Place Henri", "address2": "rue du Docteur Long", "name": "Place Henri", "bike_stands": "13", "pole": "maillage"}, "coordinates": {"lat": 4.880563488669042, "lon": 45.74816647336289}}, {"data": {"address": "Angle rue Emile Decorps / Rue Max Barel", "address2": "", "name": "Pixel", "bike_stands": "16", "pole": "P\u00f4le Pixel"}, "coordinates": {"lat": 4.899965219427945, "lon": 45.757156014647244}}, {"data": {"address": "Place Le Viste", "address2": "angle rue des Maronniers", "name": "Bellecour / R\u00e9publique", "bike_stands": "18", "pole": "m\u00e9tro A D, site, commerces"}, "coordinates": {"lat": 4.834636392809252, "lon": 45.75796251591309}}, {"data": {"address": "Place de l'Hippodrome", "address2": "Angle cours Charlemagne", "name": "Place de l'Hippodrome", "bike_stands": "14", "pole": "coeur quartier"}, "coordinates": {"lat": 4.823532673236309, "lon": 45.74558155218048}}, {"data": {"address": "Place de la Ferrandi\u00e8re", "address2": "Intersection Ferrandi\u00e8re/Jasseron", "name": "Place de la Ferrandi\u00e8re", "bike_stands": "15", "pole": "maillage"}, "coordinates": {"lat": 4.869759999640869, "lon": 45.75964630162259}}, {"data": {"address": "6 rue de la Plati\u00e8re", "address2": "angle quai de la P\u00eacherie", "name": "P\u00eacherie / Pl\u00e2ti\u00e8re", "bike_stands": "17", "pole": "bouquinistes"}, "coordinates": {"lat": 4.83110736608632, "lon": 45.765949493943616}}, {"data": {"address": "Rue des Arts", "address2": "", "name": "DOUA / Rue des sports", "bike_stands": "30", "pole": "Tennis, stade, piscine"}, "coordinates": {"lat": 4.87740423257663, "lon": 45.78448518723843}}, {"data": {"address": "Rue Alexis Perroncel", "address2": "", "name": "Vaillant/Perroncel", "bike_stands": "17", "pole": "Maillage, itin\u00e9raire cyclable"}, "coordinates": {"lat": 4.880289871334019, "lon": 45.775425991547074}}, {"data": {"address": "Cours E. Zola", "address2": "Angle passage Rey", "name": "Zola / Passage Rey", "bike_stands": "19", "pole": "Salle de gym des Gratte-Ciel, centre-ville"}, "coordinates": {"lat": 4.876948414711539, "lon": 45.77004808781788}}, {"data": {"address": "111 av. Barth\u00e9l\u00e9my Buyer", "address2": "", "name": "Apollinaire/Buyer", "bike_stands": "22", "pole": "Centre commercial"}, "coordinates": {"lat": 4.803061397228263, "lon": 45.76179861948484}}, {"data": {"address": "143, Avenue Paul Kruger", "address2": "", "name": "Place d'Espagne", "bike_stands": "22", "pole": "Stade"}, "coordinates": {"lat": 4.905663889748618, "lon": 45.75409793070992}}, {"data": {"address": "Avenue Rockefeller", "address2": "Intersection Rockfeller/Esquirol", "name": "Rockfeller / Esquirol", "bike_stands": "19", "pole": "tram, \u00e9cole d'infirmi\u00e8re, itin\u00e9raire cyclable"}, "coordinates": {"lat": 4.885377197932872, "lon": 45.74142311271295}}, {"data": {"address": "rue Garibaldi", "address2": "angle avenue Berthelot", "name": "Berthelot / Garibaldi", "bike_stands": "10", "pole": "tram, itin\u00e9raires cyclables"}, "coordinates": {"lat": 4.847275267998711, "lon": 45.74371952534268}}, {"data": {"address": "78 rue Marietton", "address2": "", "name": "Marietton ouest", "bike_stands": "20", "pole": "Maillage"}, "coordinates": {"lat": 4.799714958266788, "lon": 45.7760919647711}}, {"data": {"address": "59 boulevard Pinel", "address2": "", "name": "H\u00f4pital Neurologique", "bike_stands": "30", "pole": "Centre hospitalier, itin\u00e9raire cyclable"}, "coordinates": {"lat": 4.896957057546001, "lon": 45.74818329384317}}, {"data": {"address": "angle rue Baratin/rue r\u00e9guillon", "address2": "", "name": "Boiron Grang\u00e9", "bike_stands": "16", "pole": "stade, complexe sportif Boiron Grang\u00e9"}, "coordinates": {"lat": 4.900479530365132, "lon": 45.763158795690586}}, {"data": {"address": "route de Vienne", "address2": "angle avenue Berthelot", "name": "Berthelot / Route de Vienne", "bike_stands": "15", "pole": "tram"}, "coordinates": {"lat": 4.850536971459666, "lon": 45.74265376172829}}, {"data": {"address": "60 avenue Rockefeller", "address2": "", "name": "BioParc", "bike_stands": "30", "pole": "P\u00f4le d'habitation, Bio Parc, Facult\u00e9 de M\u00e9decine"}, "coordinates": {"lat": 4.888085810136047, "lon": 45.740483091025865}}, {"data": {"address": "Rue du Docteur Damidot", "address2": "Devant la MJC", "name": "MJC", "bike_stands": "10", "pole": "MJC"}, "coordinates": {"lat": 4.886157284856601, "lon": 45.76178828496871}}, {"data": {"address": "44 bd des Brotteaux", "address2": "", "name": "Place Juliette R\u00e9camier", "bike_stands": "15", "pole": "Commerces, maillage"}, "coordinates": {"lat": 4.856833385865118, "lon": 45.766296077116884}}, {"data": {"address": "Rue Dr Alb\u00e9ric Pont", "address2": "", "name": "Charcot / Alb\u00e9ric Po", "bike_stands": "16", "pole": "Gymnase, Terrain de sports, coll\u00e8ge"}, "coordinates": {"lat": 4.80445892719369, "lon": 45.75344219422169}}, {"data": {"address": "3 quai Paul S\u00e9dallian", "address2": "", "name": "St Rambert - Ile Barbe", "bike_stands": "16", "pole": "Mairie annexe, Ile Barbe, coeur quartier, Poste, commerces"}, "coordinates": {"lat": 4.829084443497945, "lon": 45.79739124128059}}, {"data": {"address": "29, Boulevard du 11 Novembre 1918", "address2": "", "name": "Rossellini / 11 Novembre", "bike_stands": "20", "pole": "BRGM, ENSSIB"}, "coordinates": {"lat": 4.862902169028769, "lon": 45.77940831360801}}, {"data": {"address": "Rue Hauy", "address2": "", "name": "M\u00e9moire & Soci\u00e9t\u00e9", "bike_stands": "18", "pole": "M\u00e9moire et soci\u00e9t\u00e9, itin\u00e9raire cyclable"}, "coordinates": {"lat": 4.882757862494826, "lon": 45.75957683325158}}, {"data": {"address": "Rue de Cr\u00e9qui", "address2": "Angle cours Lafayette", "name": "Lafayette / Cr\u00e9qui", "bike_stands": "16", "pole": ""}, "coordinates": {"lat": 4.84713740895248, "lon": 45.763404572574046}}, {"data": {"address": "Face 2 rue de la Poudrette", "address2": "", "name": "Carr\u00e9 de Soie", "bike_stands": "20", "pole": "Centre commercial Carr\u00e9 de Soie"}, "coordinates": {"lat": 4.919275785947367, "lon": 45.76440031305878}}, {"data": {"address": "332 bd de Balmont", "address2": "", "name": "Balmont", "bike_stands": "22", "pole": "Commerces"}, "coordinates": {"lat": 4.799160340972627, "lon": 45.78931518758451}}, {"data": {"address": "17 rue d'Austerlitz", "address2": "", "name": "Boussange/Austerlitz", "bike_stands": "18", "pole": "Renforcement 4022, commerces"}, "coordinates": {"lat": 4.835062545291406, "lon": 45.77550235904858}}, {"data": {"address": "51 rue Moncey", "address2": "", "name": "Guichard / Mazenod", "bike_stands": "16", "pole": "M\u00e9tro, tram, palais justice, bourse du travail"}, "coordinates": {"lat": 4.846538609511438, "lon": 45.75882524953305}}, {"data": {"address": "Rue de la Viabert", "address2": "angle avenue Thiers", "name": "Viabert / Avenue Thiers", "bike_stands": "16", "pole": "tram, itin\u00e9raire cyclable"}, "coordinates": {"lat": 4.862092278200751, "lon": 45.76598798338235}}, {"data": {"address": "64 bd Eug\u00e8ne R\u00e9guillon", "address2": "", "name": "Lyc\u00e9e Marie Curie", "bike_stands": "20", "pole": "lyc\u00e9e, quartier"}, "coordinates": {"lat": 4.896454329321255, "lon": 45.7615596406929}}, {"data": {"address": "228 avenue du Plateau", "address2": "", "name": "Le Ch\u00e2teau", "bike_stands": "12", "pole": "Commerces, poste, mairie, cpam, march\u00e9"}, "coordinates": {"lat": 4.794525308499563, "lon": 45.78363716505479}}, {"data": {"address": "Avenue de Birmingham", "address2": "", "name": "Birmingham", "bike_stands": "20", "pole": ""}, "coordinates": {"lat": 4.813416257160399, "lon": 45.774631109801675}}, {"data": {"address": "41 rouet de Genas", "address2": "", "name": "Kimmerling", "bike_stands": "16", "pole": "Maillage, espace public"}, "coordinates": {"lat": 4.898865662897636, "lon": 45.75297239958678}}, {"data": {"address": "Pont Raymond Barre", "address2": "Parvis du Mus\u00e9e des Confluences", "name": "Mus\u00e9e des Confluences", "bike_stands": "20", "pole": "Mus\u00e9e des Confluences"}, "coordinates": {"lat": 4.818945534432254, "lon": 45.73339029498572}}, {"data": {"address": "1 quai Joseph Gillet", "address2": "", "name": "Conservatoire bis", "bike_stands": "22", "pole": "Conservatoire, logements"}, "coordinates": {"lat": 4.814275628454221, "lon": 45.77042813553427}}, {"data": {"address": "En face du 50 rue des Docks", "address2": "", "name": "Rochecardon", "bike_stands": "19", "pole": "Complexe cin\u00e9ma Path\u00e9"}, "coordinates": {"lat": 4.811441217420372, "lon": 45.78650844436203}}, {"data": {"address": "rue F\u00e9lissent", "address2": "angle rue de Marseille", "name": "Marseille / Saint Andr\u00e9", "bike_stands": "15", "pole": "maillage"}, "coordinates": {"lat": 4.841377964319034, "lon": 45.75300980824017}}, {"data": {"address": "Rue Anatole France", "address2": "Angle avenue Barbusse", "name": "Anatole France / Barbusse", "bike_stands": "20", "pole": "march\u00e9, centre-ville"}, "coordinates": {"lat": 4.87916148913811, "lon": 45.76813040022993}}, {"data": {"address": "Rue Jean Renoir", "address2": "", "name": "Renoir", "bike_stands": "15", "pole": "CES, logements"}, "coordinates": {"lat": 4.863961493825571, "lon": 45.75289165378124}}, {"data": {"address": "rue des Fr\u00e8res Lumi\u00e8res", "address2": "angle rue Villon", "name": "Rue des Fr\u00e8res Lumi\u00e8re", "bike_stands": "16", "pole": "commerces"}, "coordinates": {"lat": 4.866452317266829, "lon": 45.745017432083195}}, {"data": {"address": "avenue paul santy", "address2": "", "name": "Place G\u00e9n\u00e9ral Andr\u00e9", "bike_stands": "16", "pole": "itin\u00e9raire cyclable"}, "coordinates": {"lat": 4.877621239288193, "lon": 45.72828140651559}}, {"data": {"address": "Cours Charlemagne", "address2": "face station tram Ste Blandine", "name": "Sainte Blandine", "bike_stands": "16", "pole": "tram"}, "coordinates": {"lat": 4.822142870439611, "lon": 45.744422301422304}}, {"data": {"address": "Rue Paradin", "address2": "", "name": "Laennec/Pinel", "bike_stands": "18", "pole": "Jardin public"}, "coordinates": {"lat": 4.889583976281175, "lon": 45.73534602254603}}, {"data": {"address": "4 Place Sathonay", "address2": "", "name": "Place Sathonay", "bike_stands": "16", "pole": ""}, "coordinates": {"lat": 4.830079788769563, "lon": 45.76926584625129}}, {"data": {"address": "Sur l'esplanade entre la rue Hrant Dink et le 40 quai Rambaud", "address2": "", "name": "Confluence Les Docks", "bike_stands": "26", "pole": "Confluence - Les Docks"}, "coordinates": {"lat": 4.815073963373897, "lon": 45.73960750279892}}, {"data": {"address": "25 Rue du Plat", "address2": "Face facult\u00e9 catholique", "name": "Sala / Rue du Plat", "bike_stands": "15", "pole": "facult\u00e9 catholique"}, "coordinates": {"lat": 4.828374380139512, "lon": 45.756808487616944}}, {"data": {"address": "Rue Terme", "address2": "Angle rue d'Alg\u00e9rie", "name": "Terreaux / Terme", "bike_stands": "16", "pole": ""}, "coordinates": {"lat": 4.83213506219083, "lon": 45.767734686369856}}, {"data": {"address": "3 rue Cavenne", "address2": "", "name": "Place Raspail", "bike_stands": "22", "pole": "Commerces, quartier, point nodal (Guilloti\u00e8re, 7e,"}, "coordinates": {"lat": 4.840695360385709, "lon": 45.75575689667429}}, {"data": {"address": "place marengo", "address2": "", "name": "Place Marengo", "bike_stands": "23", "pole": "c\u00bfur quartier, itin\u00e9raire cyclable"}, "coordinates": {"lat": 4.875888065717219, "lon": 45.7592438500941}}, {"data": {"address": "face au n\u00b09 rue Jean Jaures", "address2": "", "name": "Perrin/Jean Jaur\u00e8s", "bike_stands": "34", "pole": "quartier Grandcl\u00e9ment"}, "coordinates": {"lat": 4.885612754254137, "lon": 45.758389382918224}}, {"data": {"address": "rue Charial", "address2": "", "name": "Sacr\u00e9 Coeur", "bike_stands": "16", "pole": "Gymnase, piscine, lyc\u00e9e, jardin public, sacr\u00e9 coeur"}, "coordinates": {"lat": 4.868395040197143, "lon": 45.7578296698746}}, {"data": {"address": "Rue Sala", "address2": "", "name": "Sala/Charit\u00e9", "bike_stands": "16", "pole": "Centre-ville"}, "coordinates": {"lat": 4.833011084685942, "lon": 45.754473276309135}}, {"data": {"address": "Rue Anatole France", "address2": "Angle Rue de Pressens\u00e9 / Flachet", "name": "Anatole France / Pressens\u00e9", "bike_stands": "10", "pole": "maillage, iti. Cyclable"}, "coordinates": {"lat": 4.889526085789316, "lon": 45.76983600058976}}, {"data": {"address": "Place Tolozan", "address2": "Angle nord-est de la place", "name": "Place Tolozan", "bike_stands": "31", "pole": "Op\u00e9ra, M\u00e9tro A, m\u00e9tro C, mairie centrale"}, "coordinates": {"lat": 4.837658261238966, "lon": 45.769604421996085}}, {"data": {"address": "Rue du Pr\u00e9sident Carnot", "address2": "C\u00f4t\u00e9 est de la place de la R\u00e9publique", "name": "Place de la R\u00e9publique", "bike_stands": "20", "pole": "commerces, parking"}, "coordinates": {"lat": 4.836172939495854, "lon": 45.76091166336479}}, {"data": {"address": "105 av. jean Jaur\u00e8s", "address2": "", "name": "Jaur\u00e8s/Lagrange", "bike_stands": "30", "pole": "Piste cyclable, commerces"}, "coordinates": {"lat": 4.841522089300284, "lon": 45.74392560462182}}, {"data": {"address": "All\u00e9e Pierre de Coubertin", "address2": "derri\u00e8re le Palais des Sports Entr\u00e9e du P", "name": "Parc de Gerland", "bike_stands": "26", "pole": "Parc de Gerland, Palais des Sports"}, "coordinates": {"lat": 4.827130628192127, "lon": 45.724093349119556}}, {"data": {"address": "43 rue Vaubecour", "address2": "", "name": "Joffre/Cond\u00e9", "bike_stands": "20", "pole": "Centre-ville, entr\u00e9e zone 30"}, "coordinates": {"lat": 4.824734489315992, "lon": 45.751848242755536}}, {"data": {"address": "Place Port Mouton", "address2": "Quai Arloing", "name": "Place Port Mouton", "bike_stands": "18", "pole": ""}, "coordinates": {"lat": 4.809504474400391, "lon": 45.7738337453507}}, {"data": {"address": "Boulevard Eug\u00e8ne Deruelle", "address2": "Face rue Mass\u00e9na, entr\u00e9e centre commercia", "name": "Part Dieu / Deruelle", "bike_stands": "20", "pole": "centre commercial"}, "coordinates": {"lat": 4.8550066229888, "lon": 45.762979012081544}}, {"data": {"address": "rue du Bourbonnais", "address2": "sur le c\u00f4t\u00e9 de la mairie", "name": "Place du March\u00e9", "bike_stands": "22", "pole": "mairie, coeur quartier, m\u00e9tro D"}, "coordinates": {"lat": 4.805666011414777, "lon": 45.77424082807878}}, {"data": {"address": "Place Sainte Ir\u00e9n\u00e9e", "address2": "", "name": "Place Sainte Ir\u00e9n\u00e9e", "bike_stands": "20", "pole": "Place, r\u00e9sidence universitaire"}, "coordinates": {"lat": 4.812727209530722, "lon": 45.75543675909455}}, {"data": {"address": "100 cours Charlemagne", "address2": "Angle rue Casimir P\u00e9rier", "name": "Patinoire Charlemagne", "bike_stands": "22", "pole": "tram, patinoire"}, "coordinates": {"lat": 4.82049353568986, "lon": 45.74264639347112}}, {"data": {"address": "Cours Tolstoi", "address2": "", "name": "Totem", "bike_stands": "20", "pole": "Centre Quartier"}, "coordinates": {"lat": 4.873141087880779, "lon": 45.7636407030235}}, {"data": {"address": "rue Villon face 98", "address2": "angle rue Berthelot", "name": "Berthelot / Villon", "bike_stands": "13", "pole": "tram"}, "coordinates": {"lat": 4.862698792382356, "lon": 45.738272590258894}}, {"data": {"address": "place Jean Mac\u00e9", "address2": "face \u00e0 la Mairie", "name": "Place Jean Mac\u00e9", "bike_stands": "23", "pole": "m\u00e9tro B, tram, future halte TER, coeur quartier, mairie"}, "coordinates": {"lat": 4.841975755465655, "lon": 45.74620597988119}}, {"data": {"address": "Place Gabriel P\u00e9ri", "address2": "En face du mur peint, devant la Poste", "name": "Place Gabriel P\u00e9ri", "bike_stands": "20", "pole": "m\u00e9tro D, tram, coeur quartier, commerces"}, "coordinates": {"lat": 4.843738607780695, "lon": 45.754866891417876}}, {"data": {"address": "Rue Pierre Voyant", "address2": "", "name": "Cusset / Voyant", "bike_stands": "20", "pole": "m\u00e9tro A, centre quartier"}, "coordinates": {"lat": 4.901132892820298, "lon": 45.765042266927715}}, {"data": {"address": "Boulevard Ambroise Par\u00e9", "address2": "", "name": "Ambroise Par\u00e9", "bike_stands": "24", "pole": "Services et habitat"}, "coordinates": {"lat": 4.883736826213056, "lon": 45.73624049449407}}, {"data": {"address": "9 rue Pierre Verger", "address2": "", "name": "Santy / Beauvisage", "bike_stands": "22", "pole": "Maillage"}, "coordinates": {"lat": 4.874244913775125, "lon": 45.731756154042}}, {"data": {"address": "Place Rouget de l'Isle", "address2": "avenue Lacassagne", "name": "Place Rouget de L'Isle", "bike_stands": "16", "pole": "maillage"}, "coordinates": {"lat": 4.86723027088668, "lon": 45.75400878727338}}, {"data": {"address": "Place B\u00e9raudier", "address2": "", "name": "Gare Part Dieu ouest", "bike_stands": "32", "pole": "Gare Part-Dieu, m\u00e9tro B, tram"}, "coordinates": {"lat": 4.85873229454524, "lon": 45.76011911271885}}, {"data": {"address": "Avenue Gaston Berger", "address2": "", "name": "DOUA / Gaston Berger", "bike_stands": "30", "pole": "Tramway, itin\u00e9raires cyclabels, amphis"}, "coordinates": {"lat": 4.87132691289157, "lon": 45.78094447974102}}, {"data": {"address": "Place Jean Ambre", "address2": "Angle grande rue de la Croix Rousse", "name": "Place J. Ambre", "bike_stands": "20", "pole": "Th\u00e9\u00e2tre, coeur quartier, h\u00f4pital"}, "coordinates": {"lat": 4.8328399154362, "lon": 45.781492029845516}}, {"data": {"address": "Angle Place de la com\u00e9die, rue Joseph Serlin", "address2": "", "name": "Op\u00e9ra", "bike_stands": "22", "pole": "Op\u00e9ra, m\u00e9tro, mairie centrale"}, "coordinates": {"lat": 4.836282399686429, "lon": 45.76750691053081}}, {"data": {"address": "49 cours Aristide Briand", "address2": "", "name": "Saint-Clair", "bike_stands": "20", "pole": "Commerces, centre de quartier"}, "coordinates": {"lat": 4.848303643509249, "lon": 45.78572987433807}}, {"data": {"address": "Rue du Professeur Bouvier", "address2": "Angle rue du 8 Mai 1945", "name": "Bouvier / 8 mai 1945", "bike_stands": "16", "pole": "coeur quartier"}, "coordinates": {"lat": 4.891500824527039, "lon": 45.77944992658261}}, {"data": {"address": "Boulevard des Belges", "address2": "Face rue Duquenne", "name": "Boulevard des Belges", "bike_stands": "15", "pole": "Parc de la T\u00eate d'Or"}, "coordinates": {"lat": 4.851830180121344, "lon": 45.773319511124846}}, {"data": {"address": "3 rue Herriot", "address2": "angle rue Pizay", "name": "Terreaux / Herriot", "bike_stands": "11", "pole": "Palais des Beaux Arts"}, "coordinates": {"lat": 4.834333321272857, "lon": 45.76683684613603}}, {"data": {"address": "Quai Augagneur", "address2": "Entre rue de Bonnel et rue Rabelais", "name": "Augagneur / Bonnel", "bike_stands": "21", "pole": "maillage (habitat dense)"}, "coordinates": {"lat": 4.841053430766209, "lon": 45.761965130115485}}, {"data": {"address": "Place B\u00e9raudier", "address2": "derri\u00e8re la station tram", "name": "Gare Part-Dieu / Vivier Merle 1", "bike_stands": "40", "pole": "gare"}, "coordinates": {"lat": 4.858464175430208, "lon": 45.76026300589383}}, {"data": {"address": "65 Boulevard Vivier-Merle", "address2": "angle rue Paul Bert", "name": "Part Dieu / CAFAL", "bike_stands": "40", "pole": "CAFAL"}, "coordinates": {"lat": 4.858934964995981, "lon": 45.75733073867897}}, {"data": {"address": "Quai Romain Rolland / angle quai de Bondy", "address2": "Place Fousseret", "name": "Place Fousseret", "bike_stands": "16", "pole": "Vieux Lyon"}, "coordinates": {"lat": 4.828944798858943, "lon": 45.764685782659}}, {"data": {"address": "2 avenue des Fr\u00e8res Lumi\u00e8re", "address2": "", "name": "Montplaisir", "bike_stands": "16", "pole": "Clinique, renforcement 8001"}, "coordinates": {"lat": 4.860143703617903, "lon": 45.747096714094674}}, {"data": {"address": "26 rue de la Viabert", "address2": "", "name": "Charmettes - Bellecombe", "bike_stands": "16", "pole": "CIL Bellecombe, h\u00f4pital des Charmettes, ND de Bell"}, "coordinates": {"lat": 4.865084163871062, "lon": 45.766370349317626}}, {"data": {"address": "Rue de la Technologie", "address2": "", "name": "IUT/Feyssine", "bike_stands": "30", "pole": "IUT, tramway"}, "coordinates": {"lat": 4.882410401534903, "lon": 45.7856324623545}}, {"data": {"address": "Place Bellecour", "address2": "c\u00f4t\u00e9 rue Lintier", "name": "Bellecour", "bike_stands": "20", "pole": "m\u00e9tro A D, site, commerces"}, "coordinates": {"lat": 4.83043945355408, "lon": 45.75826204300019}}, {"data": {"address": "192 avenue Barth\u00e9l\u00e9my Buyer", "address2": "", "name": "Champvert", "bike_stands": "18", "pole": "Centre social, march\u00e9"}, "coordinates": {"lat": 4.792714308107986, "lon": 45.76389776742475}}, {"data": {"address": "avenue Jean Jaur\u00e8s", "address2": "Angle rue Fourcade", "name": "Jean Jaur\u00e8s / M\u00e9tro", "bike_stands": "16", "pole": "m\u00e9tro B"}, "coordinates": {"lat": 4.837585521771116, "lon": 45.73779482626071}}, {"data": {"address": "Place GrandCl\u00e9ment", "address2": "", "name": "GrandCl\u00e9ment", "bike_stands": "19", "pole": "centre quartier, futur arr\u00eat C3, itin\u00e9raire cyclable"}, "coordinates": {"lat": 4.889863617962159, "lon": 45.75971169359101}}, {"data": {"address": "Place Gorjus", "address2": "", "name": "Place A.Gourju", "bike_stands": "20", "pole": "Commerces, place Bellecour,"}, "coordinates": {"lat": 4.830144677072242, "lon": 45.759469884821726}}, {"data": {"address": "rue Nungesser et Coli", "address2": "angle avenue La\u00ebnnec", "name": "Laennec / Facult\u00e9s", "bike_stands": "16", "pole": "fac, tram"}, "coordinates": {"lat": 4.879736930616557, "lon": 45.74137373779656}}, {"data": {"address": "Rue Commandant Charcot", "address2": "", "name": "La Salette", "bike_stands": "15", "pole": "Habitations, commerces"}, "coordinates": {"lat": 4.795610615269672, "lon": 45.7496868148719}}, {"data": {"address": "Avenue Aristide Briand", "address2": "En face de l'entr\u00e9e de la mairie", "name": "Mairie de Villeurbanne", "bike_stands": "26", "pole": "Mairie de Villeurbanne, TNP, itin\u00e9raire cyclable"}, "coordinates": {"lat": 4.87989386727746, "lon": 45.766830606452515}}, {"data": {"address": "avenue Stalingrad", "address2": "angle rue Chaplin", "name": "Chaplin / Dutri\u00e9voz", "bike_stands": "16", "pole": "entreprises, itin\u00e9raires cyclables"}, "coordinates": {"lat": 4.859154585760836, "lon": 45.774356828699524}}, {"data": {"address": "20 rue de la Poulaillerie", "address2": "Angle Poulaillerie / R\u00e9publique", "name": "R\u00e9publique / Palais de la Bourse", "bike_stands": "22", "pole": "commerces, palais de la bourse"}, "coordinates": {"lat": 4.835525357888597, "lon": 45.764072350311615}}, {"data": {"address": "219 avenue Jean Jaur\u00e8s", "address2": "", "name": "Jaur\u00e8s / Bollier", "bike_stands": "24", "pole": "ENS Lettres, commerces"}, "coordinates": {"lat": 4.83545738244912, "lon": 45.73468184291485}}, {"data": {"address": "Rue du Repos (entr\u00e9e parc Blandan)", "address2": "", "name": "Parc Blandan", "bike_stands": "25", "pole": "Parc Sergent Blandan"}, "coordinates": {"lat": 4.851189942061625, "lon": 45.74596239999429}}, {"data": {"address": "rue professeur beauvisage", "address2": "", "name": "Beauvisage / Pr\u00e9ssens\u00e9 / Viviani", "bike_stands": "20", "pole": "itin\u00e9raires cyclables"}, "coordinates": {"lat": 4.863517590439339, "lon": 45.72788854571281}}, {"data": {"address": "Quai Romain Rolland", "address2": "Face au Palais de Justice", "name": "Saint Jean / Palais de Justice", "bike_stands": "17", "pole": "Vieux Lyon"}, "coordinates": {"lat": 4.828889682458041, "lon": 45.76203708069267}}, {"data": {"address": "Rue du Sytral", "address2": "", "name": "Gare Laurent Bonnevay", "bike_stands": "29", "pole": "Gare, m\u00e9tro"}, "coordinates": {"lat": 4.909818219704435, "lon": 45.76512405535536}}, {"data": {"address": "Rue de la Martini\u00e8re", "address2": "Au niveau de la place Saint Vincent", "name": "Martini\u00e8re", "bike_stands": "11", "pole": "Maillage"}, "coordinates": {"lat": 4.827621704471155, "lon": 45.7682183165922}}, {"data": {"address": "Rue Jeunet", "address2": "", "name": "Valdo/Jeunet", "bike_stands": "18", "pole": "Maillage"}, "coordinates": {"lat": 4.788774121103121, "lon": 45.750481483431024}}, {"data": {"address": "Rue de la Villette", "address2": "", "name": "Gare Part Dieu Est", "bike_stands": "30", "pole": "Gare Part-Dieu"}, "coordinates": {"lat": 4.86167388058994, "lon": 45.76005505781484}}, {"data": {"address": "Place Carnot", "address2": "Cot\u00e9 Sud/Est de la Place en face N\u00b016", "name": "Perrache / Carnot", "bike_stands": "18", "pole": ""}, "coordinates": {"lat": 4.828051501355155, "lon": 45.75009964332607}}, {"data": {"address": "Face 34 rue Baraban", "address2": "", "name": "Patinoire Baraban", "bike_stands": "20", "pole": "Patinoire, activit\u00e9s"}, "coordinates": {"lat": 4.868611124870175, "lon": 45.76258566461854}}, {"data": {"address": "Rue Tabareau", "address2": "angle boulevard de la Croix-Rousse", "name": "Tabareau", "bike_stands": "15", "pole": "IUFM"}, "coordinates": {"lat": 4.825192571096995, "lon": 45.7740460473114}}, {"data": {"address": "4 place Danton", "address2": "", "name": "Place Danton", "bike_stands": "18", "pole": "Commerces, bureau"}, "coordinates": {"lat": 4.857546398521348, "lon": 45.75483399472108}}, {"data": {"address": "Rue Corneille", "address2": "angle rue Lafayette", "name": "Lafayette /Corneille", "bike_stands": "13", "pole": "maillage"}, "coordinates": {"lat": 4.843742578390699, "lon": 45.76374999561221}}, {"data": {"address": "6 rue Gorge de Loup", "address2": "", "name": "Gorge de Loup", "bike_stands": "16", "pole": "Commerces, coeur de quartier"}, "coordinates": {"lat": 4.805158003014946, "lon": 45.770134072017605}}, {"data": {"address": "En face du 51 rue Sidoine Appolinaire", "address2": "", "name": "Piscine de Vaise", "bike_stands": "19", "pole": "Piscine"}, "coordinates": {"lat": 4.796540289184228, "lon": 45.77094103106504}}, {"data": {"address": "95 bd Pinel", "address2": "", "name": "Vinatier", "bike_stands": "20", "pole": "H\u00f4pital"}, "coordinates": {"lat": 4.893499780980586, "lon": 45.7419202027106}}, {"data": {"address": "10 rue Paul Kruger", "address2": "", "name": "Longefer / Kruger", "bike_stands": "16", "pole": "Maillage"}, "coordinates": {"lat": 4.878130905552831, "lon": 45.73866788395093}}, {"data": {"address": "4 place Gailleton", "address2": "", "name": "Gailleton", "bike_stands": "16", "pole": ""}, "coordinates": {"lat": 4.833353843957238, "lon": 45.75345491421144}}, {"data": {"address": "12 quai Commerce", "address2": "entre la rue Dupont et la rue bourget => centre", "name": "Saint-Cyr / Mouillard", "bike_stands": "23", "pole": "itin\u00e9raires cyclables"}, "coordinates": {"lat": 4.811433044831253, "lon": 45.78334103569242}}, {"data": {"address": "Face au 84, quai Joseph Gillet", "address2": "150 m\u00e8tres au sud de la rue du Bois de la Caille", "name": "Lyon M\u00e9tropole", "bike_stands": "25", "pole": ""}, "coordinates": {"lat": 4.818560286672528, "lon": 45.78817001882366}}, {"data": {"address": "170 boulevard des Etats-Unis angle avenue Viviani dir. v\u00e9nissieux", "address2": "", "name": "Etats-Unis Viviani", "bike_stands": "20", "pole": ""}, "coordinates": {"lat": 4.870831654768776, "lon": 45.72471626550501}}, {"data": {"address": "Place du Lac", "address2": "face \u00e0 la Poste", "name": "Place du Lac", "bike_stands": "19", "pole": ""}, "coordinates": {"lat": 4.853880856121918, "lon": 45.758815494892524}}, {"data": {"address": "Cours Franklin Roosevelt", "address2": "Angle rue Vend\u00f4me", "name": "Foch / Roosevelt", "bike_stands": "20", "pole": "m\u00e9tro A, coeur quartier"}, "coordinates": {"lat": 4.844764938842583, "lon": 45.76885136975936}}, {"data": {"address": "Place Victor Basch", "address2": "", "name": "Place Victor Basch", "bike_stands": "20", "pole": "m\u00e9tro B D"}, "coordinates": {"lat": 4.848042426103683, "lon": 45.75378586524356}}, {"data": {"address": "34 rue Billon", "address2": "", "name": "Parc du Centre", "bike_stands": "16", "pole": "Parc du centre, itin\u00e9raire cyclable"}, "coordinates": {"lat": 4.879059576662246, "lon": 45.77192496867655}}, {"data": {"address": "6 rue Antoine Lumi\u00e8re", "address2": "", "name": "Lumi\u00e8re/Trouilhet", "bike_stands": "16", "pole": "Poste, commerces"}, "coordinates": {"lat": 4.870105969141732, "lon": 45.74357206905033}}, {"data": {"address": "79, rue Philippe De Lassalle", "address2": "", "name": "Stade Gr\u00e9gory Coupet", "bike_stands": "16", "pole": "Stade"}, "coordinates": {"lat": 4.820600046127587, "lon": 45.78170010676795}}, {"data": {"address": "rue Garibaldi", "address2": "angle rue Grillon", "name": "Sully / Garibaldi", "bike_stands": "11", "pole": "commerces (ATAC)"}, "coordinates": {"lat": 4.849971342803483, "lon": 45.77085626834296}}, {"data": {"address": "16 rue des Fargues", "address2": "", "name": "St Just", "bike_stands": "18", "pole": "Coeur de quartier, commerces, jardin public, lyc\u00e9e"}, "coordinates": {"lat": 4.819314497750852, "lon": 45.756082553797015}}, {"data": {"address": "rue Bourgelat", "address2": "angle rue Henry 4", "name": "Place Amp\u00e8re", "bike_stands": "10", "pole": "m\u00e9tro A, coeur quartier, commerces"}, "coordinates": {"lat": 4.828267282622693, "lon": 45.75304370740951}}, {"data": {"address": "cours Albert Thomas", "address2": "angle rue Villon", "name": "Albert Thomas / Villon", "bike_stands": "20", "pole": "bureaux, itin\u00e9raire cyclable"}, "coordinates": {"lat": 4.867283346801929, "lon": 45.7467702121095}}, {"data": {"address": "Rue Jacques Brel", "address2": "", "name": "Jacques Brel /Chorel", "bike_stands": "23", "pole": "Tram, habitat dense et quartier du Tonkin"}, "coordinates": {"lat": 4.864286065750876, "lon": 45.77422553971825}}, {"data": {"address": "74 rue de la Villette", "address2": "", "name": "Villette/Paul Bert", "bike_stands": "30", "pole": "Etablissements publics, bureaux"}, "coordinates": {"lat": 4.861496585940112, "lon": 45.75776455642353}}, {"data": {"address": "Quai Chauveau", "address2": "avant angle pont Koenig", "name": "Conservatoire", "bike_stands": "19", "pole": "Conservatoire national de musique"}, "coordinates": {"lat": 4.812676219585405, "lon": 45.76978221215741}}, {"data": {"address": "place du 11 novembre 1918", "address2": "", "name": "Place 11 novembre 1918", "bike_stands": "20", "pole": "tram"}, "coordinates": {"lat": 4.869916091510087, "lon": 45.736574944562335}}, {"data": {"address": "Place Antonin Poncet", "address2": "Devant la librairie Privat", "name": "Bellecour / Antonin Poncet", "bike_stands": "18", "pole": "m\u00e9tro A D, poste centrale, commerces"}, "coordinates": {"lat": 4.833841021712149, "lon": 45.75676640473548}}, {"data": {"address": "Place Vanderpol", "address2": "angle rue St Pierre de Vaise", "name": "Saint Pierre de Vaise", "bike_stands": "16", "pole": "coeur de quartier"}, "coordinates": {"lat": 4.807813722264594, "lon": 45.77309957253315}}, {"data": {"address": "40 avenue Leclerc", "address2": "", "name": "Parc des Berges", "bike_stands": "20", "pole": "Acc\u00e8s berges, parc, itin\u00e9raire cyclable"}, "coordinates": {"lat": 4.824487880196702, "lon": 45.73775209868145}}, {"data": {"address": "rue Domer", "address2": "angle rue Chevreuil", "name": "MJC du 7e", "bike_stands": "12", "pole": "MJC du 7e, itin\u00e9raire cyclable"}, "coordinates": {"lat": 4.84448236134229, "lon": 45.74668592871409}}, {"data": {"address": "Rue proudhon", "address2": "", "name": "Greuze", "bike_stands": "18", "pole": "centre social"}, "coordinates": {"lat": 4.893848016714341, "lon": 45.77384366819816}}, {"data": {"address": "92 rue Voyant", "address2": "", "name": "Bourgchanin / Chambfort", "bike_stands": "22", "pole": "Commerces, centre social"}, "coordinates": {"lat": 4.900599160743398, "lon": 45.767153312728034}}, {"data": {"address": "Place de la Rochette", "address2": "", "name": "Place de la Rochette", "bike_stands": "20", "pole": ""}, "coordinates": {"lat": 4.823597023963744, "lon": 45.791670182603994}}, {"data": {"address": "3 quai Andr\u00e9 Lassagne", "address2": "", "name": "Quai Lassagne", "bike_stands": "16", "pole": "Maillage"}, "coordinates": {"lat": 4.837911792926473, "lon": 45.772201469257226}}, {"data": {"address": "All\u00e9e A. Lignon", "address2": "Au niveau de l'arr\u00eat de bus Interpol", "name": "Cit\u00e9 Int. / Interpol", "bike_stands": "27", "pole": "Interpol, habitations, parc"}, "coordinates": {"lat": 4.849343980816729, "lon": 45.782306112832835}}, {"data": {"address": "184 route de Vienne", "address2": "", "name": "Vienne  / Montagny", "bike_stands": "20", "pole": "Maillage"}, "coordinates": {"lat": 4.853420215601902, "lon": 45.73236036343563}}, {"data": {"address": "Rue Florian", "address2": "Angle cours Tolsto\u00ef", "name": "Tolsto\u00ef / Verlaine", "bike_stands": "11", "pole": "itin\u00e9raire cyclable"}, "coordinates": {"lat": 4.880737779691741, "lon": 45.76171635052216}}, {"data": {"address": "Place des Maisons Neuves", "address2": "C\u00f4t\u00e9 rue Jean Jaur\u00e8s", "name": "Maisons Neuves", "bike_stands": "13", "pole": "centre quartier, itin\u00e9raire cyclable"}, "coordinates": {"lat": 4.87734642987402, "lon": 45.75595102923561}}, {"data": {"address": "76 rue Pierre Baratin", "address2": "", "name": "Bon Coin", "bike_stands": "12", "pole": "Terrain de sport, quartier"}, "coordinates": {"lat": 4.900696968320919, "lon": 45.76060375736817}}, {"data": {"address": "171 rue L\u00e9on Blum", "address2": "", "name": "La P\u00e9rrali\u00e8re", "bike_stands": "22", "pole": "Centre de quartier, commerces"}, "coordinates": {"lat": 4.892333607182114, "lon": 45.76456366652941}}, {"data": {"address": "80 Quai Charles de Gaulle", "address2": "", "name": "Cit\u00e9 Internationale - Cin\u00e9ma", "bike_stands": "32", "pole": "Cin\u00e9mas, commerces"}, "coordinates": {"lat": 4.852215476117999, "lon": 45.78473625802337}}, {"data": {"address": "53 rue Chapeau Rouge", "address2": "", "name": "Place Rhodiaceta", "bike_stands": "12", "pole": "ANPE, bureaux, enseignement secondaire"}, "coordinates": {"lat": 4.807612893271322, "lon": 45.771005567625956}}, {"data": {"address": "17 place Jules Ferry", "address2": "", "name": "Brotteaux", "bike_stands": "20", "pole": "M\u00e9tro, parking, place, restaurants"}, "coordinates": {"lat": 4.859070556738344, "lon": 45.76841226137646}}, {"data": {"address": "Place Jules Ferry", "address2": "", "name": "Gare des Brotteaux", "bike_stands": "20", "pole": "Places Jules Ferry, M\u00e9tro B, Parking, restaurants"}, "coordinates": {"lat": 4.85897382063673, "lon": 45.7668552367471}}, {"data": {"address": "cours Emile Zola", "address2": "", "name": "m\u00e9tro Flachet", "bike_stands": "24", "pole": "m\u00e9tro A"}, "coordinates": {"lat": 4.892150426234925, "lon": 45.76712638642693}}, {"data": {"address": "Avenue de Bel Air", "address2": "", "name": "Bel Air / Les Brosses", "bike_stands": "20", "pole": "Tramway, piste cyclable"}, "coordinates": {"lat": 4.910806708668668, "lon": 45.75790707323609}}, {"data": {"address": "Boulevard du 11 Novembre 1918", "address2": "Croisement Tram", "name": "Condorcet / 11 Nov. 1918", "bike_stands": "12", "pole": "tram, itin\u00e9raire cyclable"}, "coordinates": {"lat": 4.866778328024092, "lon": 45.77904577371858}}, {"data": {"address": "avenue Antoine de Saint-Exup\u00e9ry fac", "address2": "entre rue Richelieu et rue Florian", "name": "Saint Exup\u00e9ry", "bike_stands": "15", "pole": "Commerces, march\u00e9, centre de quartier"}, "coordinates": {"lat": 4.878975745689845, "lon": 45.75878826090024}}, {"data": {"address": "rue du Chariot d'Or", "address2": "Place Bertone", "name": "Place Bertone", "bike_stands": "12", "pole": "coeur quartier"}, "coordinates": {"lat": 4.834450944777563, "lon": 45.777615301464905}}, {"data": {"address": "45 rue Gerland", "address2": "", "name": "Jaur\u00e8s/Gerland", "bike_stands": "20", "pole": "Foyer \u00e9tudiant, centre de formation"}, "coordinates": {"lat": 4.840307388622857, "lon": 45.73981323488968}}, {"data": {"address": "rue 1945/05/08", "address2": "", "name": "Salengro / 8 mai 1945", "bike_stands": "20", "pole": "itin\u00e9raires cyclables"}, "coordinates": {"lat": 4.890585836625102, "lon": 45.78301107459788}}, {"data": {"address": "Rue Paul Cazeneuve", "address2": "", "name": "Cazeneuve", "bike_stands": "19", "pole": "Quartier d'habitation"}, "coordinates": {"lat": 4.862904488884066, "lon": 45.73403249564836}}, {"data": {"address": "127 quai Fulchiron", "address2": "", "name": "Place Cr\u00e9pu", "bike_stands": "20", "pole": "Vieux Lyon, Parking"}, "coordinates": {"lat": 4.826223347995768, "lon": 45.75787460077599}}, {"data": {"address": "Rue Rivet", "address2": "", "name": "Lyc\u00e9e Labb\u00e9", "bike_stands": "20", "pole": "Lyc\u00e9e, QGF, projet cyclable"}, "coordinates": {"lat": 4.832109244608898, "lon": 45.74025919013992}}, {"data": {"address": "Boulevard des Canuts", "address2": "angle boulevard de la Croix-Rousse", "name": "Place des tapis", "bike_stands": "17", "pole": "coeur de quartier"}, "coordinates": {"lat": 4.829474958894087, "lon": 45.77609297865248}}, {"data": {"address": "Cours Albert Thomas", "address2": "", "name": "Institut Lumi\u00e8re", "bike_stands": "18", "pole": "M\u00e9tro, coeur quartier, institut Lumi\u00e8re, march\u00e9"}, "coordinates": {"lat": 4.8706875747776, "lon": 45.74580956929111}}, {"data": {"address": "4 Bd Eug\u00e8ne Deruelle", "address2": "", "name": "Part-Dieu / Deruelle / Garibaldi", "bike_stands": "20", "pole": "Centre Commercial, bureaux, renforcement 2-003"}, "coordinates": {"lat": 4.852309764957915, "lon": 45.76274131133987}}, {"data": {"address": "rue du 24 Mars 1852", "address2": "face entr\u00e9e gare", "name": "Gare de Vaise", "bike_stands": "22", "pole": "Gare, m\u00e9tro D"}, "coordinates": {"lat": 4.804566617251226, "lon": 45.779743657084545}}, {"data": {"address": "rue de Cr\u00e9qui", "address2": "angle place Voltaire", "name": "Voltaire / Cr\u00e9qui", "bike_stands": "30", "pole": "Coeur de quartier"}, "coordinates": {"lat": 4.848405333168788, "lon": 45.75669926818415}}, {"data": {"address": "Rue des Cuirassiers", "address2": "angle rue Bouchut", "name": "Part Dieu / Cuirassier", "bike_stands": "38", "pole": "centre commercial, biblioth\u00e8que"}, "coordinates": {"lat": 4.855961209150021, "lon": 45.75937413203321}}, {"data": {"address": "Avenue du 11 novembre 1918", "address2": "Angle Avenue Gaston Berger", "name": "11 novembre / Gaston Berger", "bike_stands": "35", "pole": "resto U, associations, logements \u00e9tudiants, iti. Cyclable"}, "coordinates": {"lat": 4.871952195102796, "lon": 45.77911218859248}}, {"data": {"address": "Rue Duguesclin", "address2": "Angle Gambetta", "name": "Place Aristide Briand", "bike_stands": "23", "pole": "itin\u00e9raires cyclables"}, "coordinates": {"lat": 4.850247427219969, "lon": 45.7530043530221}}, {"data": {"address": "105, cours Emile Zola", "address2": "", "name": "m\u00e9tro R\u00e9publique", "bike_stands": "18", "pole": "m\u00e9tro"}, "coordinates": {"lat": 4.87295938886729, "lon": 45.77078384006838}}, {"data": {"address": "Place Cdt Arnaud", "address2": "angle rue Belfort", "name": "Place Cdt Arnaud", "bike_stands": "17", "pole": "coeur quartier"}, "coordinates": {"lat": 4.834787248409274, "lon": 45.77971320932097}}, {"data": {"address": "28 quai Augagneur", "address2": "", "name": "Augagneur", "bike_stands": "16", "pole": "Commerces, quartier, point nodal (Guilloti\u00e8re, 7e,"}, "coordinates": {"lat": 4.840499137542488, "lon": 45.75719970232654}}, {"data": {"address": "rue Masaryk", "address2": "angle rue Chinard/rue de Saint Cyr", "name": "Masaryk / Saint Cyr", "bike_stands": "13", "pole": "maillage"}, "coordinates": {"lat": 4.807040366536837, "lon": 45.77855424064564}}, {"data": {"address": "109 route de Genas", "address2": "", "name": "Place de la Reconnaissance", "bike_stands": "32", "pole": "MJC, espace public, maillage"}, "coordinates": {"lat": 4.88513867618816, "lon": 45.75453599067611}}, {"data": {"address": "Rue des Charmettes", "address2": "Angle cours Emile Zola", "name": "Charmettes / Zola", "bike_stands": "24", "pole": "maillage, arr\u00eat C3 ?"}, "coordinates": {"lat": 4.867153097096587, "lon": 45.77074670098018}}, {"data": {"address": "19 rue de Saint-Cloud", "address2": "c\u00f4t\u00e9 place de l'\u00e9cole", "name": "Place de l'Ecole", "bike_stands": "28", "pole": "ENS Science"}, "coordinates": {"lat": 4.827793255896584, "lon": 45.73008039445899}}, {"data": {"address": "Quai Claude Bernard", "address2": "Entre Pont de l'universit\u00e9 et rue Chevreul", "name": "Universit\u00e9s Claude Bernard", "bike_stands": "29", "pole": "Universit\u00e9 Lyon 2 et Lyon 3"}, "coordinates": {"lat": 4.836353514498878, "lon": 45.75133156887547}}, {"data": {"address": "Place Liautey", "address2": "angle rue de S\u00e8ze", "name": "Liautey / Sarrail", "bike_stands": "14", "pole": "Parc du Rh\u00f4ne"}, "coordinates": {"lat": 4.841139339351328, "lon": 45.766829619624275}}, {"data": {"address": "Quai Claude Bernard", "address2": "Devant l'entr\u00e9e de la piscine", "name": "Piscine du Rh\u00f4ne", "bike_stands": "15", "pole": "Piscine du Rh\u00f4ne"}, "coordinates": {"lat": 4.838320095706191, "lon": 45.75375807513608}}, {"data": {"address": "11 Rue Chenavard", "address2": "C\u00f4t\u00e9 place des Terreaux", "name": "Terreaux / Chenavard", "bike_stands": "18", "pole": "Place des Terreaux"}, "coordinates": {"lat": 4.832933808684707, "lon": 45.766805527688426}}, {"data": {"address": "Rue du 4 ao\u00fbt 1789", "address2": "Angle rue Rollet / Blanqui", "name": "Rollet / 4 ao\u00fbt 1789 / Blanqui", "bike_stands": "10", "pole": "iti. Cyclable, associations sportives"}, "coordinates": {"lat": 4.884318929113727, "lon": 45.76482170451855}}, {"data": {"address": "Angle rue du Moulin \u00e0 Vent / route de Vienne", "address2": "", "name": "Moulin \u00e0 Vent", "bike_stands": "20", "pole": "Commerces, itin\u00e9raire cyclable, coeur de quartier"}, "coordinates": {"lat": 4.853963757190567, "lon": 45.72972669563087}}, {"data": {"address": "Bd 11 nov 1918", "address2": "", "name": "Einstein / 1 novembre 1918", "bike_stands": "34", "pole": "r\u00e9sidence \u00e9tudiante, maillage"}, "coordinates": {"lat": 4.874331308747118, "lon": 45.77947377290515}}, {"data": {"address": "164 rue Corneille", "address2": "", "name": "Place Bahadourian", "bike_stands": "18", "pole": "Coeur de quartier, DDE"}, "coordinates": {"lat": 4.845108595355385, "lon": 45.75762292285842}}, {"data": {"address": "6 ue de l'Antiquaille", "address2": "", "name": "Th\u00e9\u00e2tres Romains", "bike_stands": "12", "pole": "Th\u00e9\u00e2tre antique, lyc\u00e9e"}, "coordinates": {"lat": 4.821086641548253, "lon": 45.75836239602929}}, {"data": {"address": "Place d'Arsonval", "address2": "A c\u00f4t\u00e9 du stand de fleurs", "name": "Place d'Arsonval", "bike_stands": "32", "pole": "h\u00f4pital Herriot, m\u00e9tro D, tram, fac de pharmacie"}, "coordinates": {"lat": 4.878903126175373, "lon": 45.74344168417099}}, {"data": {"address": "Rue T\u00eate d'Or", "address2": "angle cours Vitton", "name": "Mass\u00e9na / Roosevelt", "bike_stands": "20", "pole": "m\u00e9tro A"}, "coordinates": {"lat": 4.852365271502476, "lon": 45.769672180690506}}, {"data": {"address": "2 place Saint Anne", "address2": "", "name": "Place Sainte Anne", "bike_stands": "18", "pole": "Coeur de quartier, commerces"}, "coordinates": {"lat": 4.865441659195346, "lon": 45.75695497472752}}, {"data": {"address": "Anatole France", "address2": "Angle Zola / France / Lherminier", "name": "Anatole France / Lherminier", "bike_stands": "13", "pole": "stade de la Viabert, Carrefour, iti. Cyclable"}, "coordinates": {"lat": 4.884241513242611, "lon": 45.768876317906674}}, {"data": {"address": "Place de Trion", "address2": "Angle rue de Trion et place de Trion", "name": "Place de Trion", "bike_stands": "16", "pole": "Place de Trion, St Just, commerces"}, "coordinates": {"lat": 4.813134952810747, "lon": 45.757906308906406}}, {"data": {"address": "Servient", "address2": "Angle rue Garibaldi", "name": "Servient / Garibaldi", "bike_stands": "17", "pole": "tram, cit\u00e9 administrative"}, "coordinates": {"lat": 4.852510591241066, "lon": 45.76077670548128}}, {"data": {"address": "30 quai Paul S\u00e9daillan", "address2": "", "name": "Carret / S\u00e9daillan", "bike_stands": "24", "pole": "Activit\u00e9s, logement, maillage"}, "coordinates": {"lat": 4.820635167984586, "lon": 45.79256726534583}}, {"data": {"address": "Place Rouville", "address2": "", "name": "Rouville", "bike_stands": "17", "pole": "Lyc\u00e9e Diderot, clinique Saint Charles"}, "coordinates": {"lat": 4.824634908775288, "lon": 45.76966287362501}}, {"data": {"address": "Place Saint-Paul", "address2": "", "name": "Gare Saint Paul", "bike_stands": "23", "pole": "gare, coeur quartier, Vieux Lyon"}, "coordinates": {"lat": 4.827362826171142, "lon": 45.7662574761217}}, {"data": {"address": "Rue Corneille", "address2": "Angle Corneille / Servient", "name": "Servient / Corneille", "bike_stands": "13", "pole": "tram"}, "coordinates": {"lat": 4.84451590396715, "lon": 45.75993052588361}}, {"data": {"address": "301 avenue A.Sakharov", "address2": "", "name": "Andr\u00e9i Sakharov", "bike_stands": "24", "pole": "Stade, lyc\u00e9e"}, "coordinates": {"lat": 4.797070902331011, "lon": 45.78652473934913}}, {"data": {"address": "Place des Pavillons", "address2": "Devant la Biblioth\u00e8que", "name": "Place des Pavillons", "bike_stands": "13", "pole": "ENS Sciences, coeur quartier"}, "coordinates": {"lat": 4.829690042161128, "lon": 45.7295009904289}}, {"data": {"address": "Avenue Tony Garnier", "address2": "", "name": "Cit\u00e9 Scolaire Internationale", "bike_stands": "25", "pole": ""}, "coordinates": {"lat": 4.823558742681272, "lon": 45.72796045103317}}, {"data": {"address": "Place Edgar Quinet", "address2": "Devant le lyc\u00e9e", "name": "Place Edgar Quinet", "bike_stands": "20", "pole": "coeur quartier"}, "coordinates": {"lat": 4.844731892850444, "lon": 45.76576559246292}}, {"data": {"address": "rue Pasteur", "address2": "angle avenue Berthelot", "name": "Berthelot / Pasteur", "bike_stands": "20", "pole": "tram, cin\u00e9ma"}, "coordinates": {"lat": 4.83604918965423, "lon": 45.747357762306436}}, {"data": {"address": "2 rue Claude Baudrand", "address2": "", "name": "Gare de Cuire", "bike_stands": "18", "pole": "M\u00e9tro, centre quartier"}, "coordinates": {"lat": 4.833713421589126, "lon": 45.78577553084684}}, {"data": {"address": "2, rue de la Caille", "address2": "", "name": "Dr Long / Caille", "bike_stands": "16", "pole": "Maillage"}, "coordinates": {"lat": 4.894258745750597, "lon": 45.75254290853366}}, {"data": {"address": "243, Cours Emile Zola", "address2": "", "name": "4 ao\u00fbt 1789 / Zola", "bike_stands": "19", "pole": "maillage"}, "coordinates": {"lat": 4.898703142796237, "lon": 45.766058743658895}}, {"data": {"address": "rue Docteur Locard face 15", "address2": "devant la mairie du 5\u00e8me", "name": "Mairie du 5e", "bike_stands": "13", "pole": "mairie"}, "coordinates": {"lat": 4.800962311239265, "lon": 45.75756516287992}}, {"data": {"address": "rue Saint-Jean", "address2": "entre entr\u00e9e de la Cath\u00e9drale et le m\u00e9tro", "name": "Saint Jean / Cath\u00e9drale", "bike_stands": "29", "pole": "funiculaire, coeur quartier, Vieux Lyon"}, "coordinates": {"lat": 4.82656505039726, "lon": 45.76048374389778}}, {"data": {"address": "25 rue Maryse Basti\u00e9", "address2": "", "name": "Bd Jean XXIII", "bike_stands": "16", "pole": "Tramway, habitations"}, "coordinates": {"lat": 4.874185281750019, "lon": 45.740301601398706}}, {"data": {"address": "221 avenue Lacassagne", "address2": "", "name": "Trarieux / Lacassagne", "bike_stands": "24", "pole": "Ecole d'infirmi\u00e8re"}, "coordinates": {"lat": 4.888964572397211, "lon": 45.74531459273337}}, {"data": {"address": "171 rue L\u00e9on Blum", "address2": "", "name": "Blum / Fa\u00ffs", "bike_stands": "17", "pole": "Square, commerces, lyc\u00e9e technique"}, "coordinates": {"lat": 4.906210333106445, "lon": 45.760610909807234}}, {"data": {"address": "Avenue Albert Einstein", "address2": "au niveau du virage de l'avenue", "name": "INSA", "bike_stands": "40", "pole": "INSA, tram, itin\u00e9raires cyclables"}, "coordinates": {"lat": 4.876879924443672, "lon": 45.782189644124585}}, {"data": {"address": "rue de la Madeleine", "address2": "angle rue B\u00e9guin", "name": "Place Saint Louis", "bike_stands": "15", "pole": "Coeur quartier, itin\u00e9raire cyclable"}, "coordinates": {"lat": 4.847644663833561, "lon": 45.74899895679568}}, {"data": {"address": "rue meli\u00e8s", "address2": "", "name": "Stalingrad / Meli\u00e8s", "bike_stands": "24", "pole": "centre de congr\u00e8s, bureaux"}, "coordinates": {"lat": 4.859523353791579, "lon": 45.77670575780195}}, {"data": {"address": "avenue Mermoz", "address2": "devant la mairie du 8\u00e8me", "name": "Mairie 8e", "bike_stands": "21", "pole": "Mairie du 8e"}, "coordinates": {"lat": 4.872696823702742, "lon": 45.73520632348632}}, {"data": {"address": "rue de la Baleine", "address2": "angle quai Romain Rolland", "name": "Saint Jean / Rue de la Baleine", "bike_stands": "14", "pole": "Vieux Lyon"}, "coordinates": {"lat": 4.829040441519919, "lon": 45.763375846482376}}, {"data": {"address": "4 Place Louise", "address2": "", "name": "Place Louise", "bike_stands": "16", "pole": "Coeur de quartier, Parc Georges Bazin, maillage"}, "coordinates": {"lat": 4.88482046365007, "lon": 45.75120525088192}}, {"data": {"address": "Rue Ferrandi\u00e8re", "address2": "Angle rue de Brest", "name": "Brest / Ferrandi\u00e8re", "bike_stands": "10", "pole": "restaurants de la rue Merci\u00e8re, commerces"}, "coordinates": {"lat": 4.833205955637978, "lon": 45.76205530147813}}, {"data": {"address": "Rue Joliot Curie", "address2": "", "name": "M\u00e9nival/Curie", "bike_stands": "20", "pole": "Maillage"}, "coordinates": {"lat": 4.788200511956538, "lon": 45.754647082768834}}, {"data": {"address": "86 rue de la Charit\u00e9", "address2": "", "name": "Charit\u00e9 / R\u00e9camier", "bike_stands": "17", "pole": "Lyc\u00e9e, tramway, commerces"}, "coordinates": {"lat": 4.829844125752031, "lon": 45.74925339549139}}, {"data": {"address": "128 rue Paul Bert", "address2": "", "name": "Desaix", "bike_stands": "30", "pole": ""}, "coordinates": {"lat": 4.855200856422818, "lon": 45.75726125992516}}, {"data": {"address": "Cours de la R\u00e9publique", "address2": "Angle Anatole France", "name": "R\u00e9publique / Anatole France", "bike_stands": "24", "pole": "Conservatoire (A. France = itin\u00e9raire cyclable)"}, "coordinates": {"lat": 4.873966209868982, "lon": 45.767534302007626}}, {"data": {"address": "rue Branly", "address2": "", "name": "Gratte-Ciel / Branly", "bike_stands": "16", "pole": "m\u00e9tro A, itin\u00e9raire cyclable"}, "coordinates": {"lat": 4.880584911126991, "lon": 45.76921207358222}}, {"data": {"address": "place Stalingrad", "address2": "rue de la Guilloti\u00e8re", "name": "Place de Stalingard", "bike_stands": "13", "pole": "maillage"}, "coordinates": {"lat": 4.852944254794118, "lon": 45.74955534413394}}, {"data": {"address": "25, Rue Chazi\u00e8re", "address2": "", "name": "Parc Cerisaie", "bike_stands": "20", "pole": "Parc Cerisaie, habitations"}, "coordinates": {"lat": 4.817889929552504, "lon": 45.77542246689847}}, {"data": {"address": "95, Cours Vitton", "address2": "", "name": "Charles Hernu / Vitton", "bike_stands": "16", "pole": "M\u00e9tro, Tram"}, "coordinates": {"lat": 4.862257819658227, "lon": 45.770333043820656}}, {"data": {"address": "Rue Bancel", "address2": "", "name": "Chevreul / Gryphe", "bike_stands": "16", "pole": "Itin\u00e9raire cyclable"}, "coordinates": {"lat": 4.840523165113189, "lon": 45.74851888025405}}, {"data": {"address": "79 boulevard des Etats-Unis", "address2": "Angle L\u00e9vigne / Etats-Unis", "name": "Etats Unis / L\u00e9vigne", "bike_stands": "20", "pole": "Commerce, habitat, \u00e9cole, tramway T4"}, "coordinates": {"lat": 4.865141536736715, "lon": 45.732218010659686}}, {"data": {"address": "Boulevard des Canuts", "address2": "angle rue H\u00e9non", "name": "H\u00e9non / Canuts", "bike_stands": "22", "pole": "m\u00e9tro C, itin\u00e9raire cyclable"}, "coordinates": {"lat": 4.827630442553354, "lon": 45.779685500129276}}, {"data": {"address": "Boulevard de la Croix Rousse", "address2": "", "name": "Croix Rousse / Duplat", "bike_stands": "20", "pole": "IUFM, gymnase Jean Genety"}, "coordinates": {"lat": 4.819488852022704, "lon": 45.77228485852263}}, {"data": {"address": "Cours Gambetta", "address2": "Prolongement rue Rachais", "name": "Gambetta / Garibaldi", "bike_stands": "30", "pole": "m\u00e9tro D"}, "coordinates": {"lat": 4.852534712806194, "lon": 45.751802214347805}}, {"data": {"address": "31 boulevard Yves Farge", "address2": "", "name": "QGF", "bike_stands": "30", "pole": "Parc d'activit\u00e9s, logement, projet cyclable"}, "coordinates": {"lat": 4.83425102400814, "lon": 45.74322179772394}}, {"data": {"address": "Quai Paul S\u00e9daillon", "address2": "angle rue de la Navigation", "name": "S\u00e9daillan / Naviguation", "bike_stands": "20", "pole": "p\u00f4le d'activit\u00e9 (Cegid, Infogrammes)"}, "coordinates": {"lat": 4.814373779400059, "lon": 45.787384084955846}}, {"data": {"address": "All\u00e9e Achille Lignon", "address2": "", "name": "Cit\u00e9 Internationale - R\u00e9sidence", "bike_stands": "28", "pole": "Amphith\u00e9\u00e2tre, bureaux, r\u00e9sidence h\u00f4teli\u00e8re"}, "coordinates": {"lat": 4.855615427920815, "lon": 45.78485574054305}}, {"data": {"address": "115 avenue Lacassagne", "address2": "", "name": "Feuillat/Lacassagne", "bike_stands": "16", "pole": "Maillage, stade"}, "coordinates": {"lat": 4.876021992235341, "lon": 45.74954695774357}}, {"data": {"address": "rue santos-dumont", "address2": "", "name": "Santos Dumont / Louis Jouvet", "bike_stands": "17", "pole": "maillage"}, "coordinates": {"lat": 4.860993773679107, "lon": 45.74446062899426}}, {"data": {"address": "69 rue Audibert & Lavirotte", "address2": "", "name": "Delore / Audibert & Lavirotte", "bike_stands": "20", "pole": "Maillage"}, "coordinates": {"lat": 4.8568128186712, "lon": 45.73579523205929}}, {"data": {"address": "Place de la Paix", "address2": "En face de la poste", "name": "Place de la Paix", "bike_stands": "20", "pole": "Op\u00e9ra, m\u00e9tro A, mairie centrale"}, "coordinates": {"lat": 4.831741251718416, "lon": 45.76802361265465}}, {"data": {"address": "rue colin", "address2": "", "name": "Colin /Ottavi", "bike_stands": "15", "pole": "commerces, iti. Cyclable"}, "coordinates": {"lat": 4.874257124326268, "lon": 45.773137707523745}}, {"data": {"address": "44 Bd de la Croix Rousse", "address2": "", "name": "Aveyron", "bike_stands": "17", "pole": "Ecole, renforcement 4022"}, "coordinates": {"lat": 4.832815008760463, "lon": 45.77437161575555}}, {"data": {"address": "5-6, Place Mar\u00e9chal Lyautey", "address2": "", "name": "Place Mar\u00e9chal Lyautey", "bike_stands": "20", "pole": ""}, "coordinates": {"lat": 4.842416784716996, "lon": 45.76938206613563}}, {"data": {"address": "Avenue Francis de Pressenss\u00e9", "address2": "", "name": "Francis de Pressenss\u00e9", "bike_stands": "22", "pole": "Quartier d'habitation"}, "coordinates": {"lat": 4.860265816333036, "lon": 45.73146878518792}}, {"data": {"address": "86 rue St Pierre de Vaise", "address2": "", "name": "Masset / St Pierre de Vaise", "bike_stands": "16", "pole": "Activit\u00e9s, maillage"}, "coordinates": {"lat": 4.800900483241143, "lon": 45.770476920064574}}, {"data": {"address": "rue Gabriel P\u00e9ri", "address2": "Angle cours Andr\u00e9 Philip", "name": "Charmettes / P\u00e9ri / Philip", "bike_stands": "12", "pole": ""}, "coordinates": {"lat": 4.865699268446058, "lon": 45.77229959385081}}, {"data": {"address": "rue Philippe de Lasalle face \u00e0 l'IU", "address2": "angle rue Anselme", "name": "IUFM", "bike_stands": "22", "pole": "IUFM"}, "coordinates": {"lat": 4.821279262555681, "lon": 45.77331050537247}}, {"data": {"address": "Place Leclerc", "address2": "Le long des grilles c\u00f4t\u00e9 ouest de la port", "name": "Parc T\u00eate d'Or / Enfants du Rh\u00f4ne", "bike_stands": "30", "pole": "Parc de la T\u00eate d'Or"}, "coordinates": {"lat": 4.844881259138507, "lon": 45.777379316644186}}, {"data": {"address": "10 place de la Paix", "address2": "", "name": "Place de la paix", "bike_stands": "17", "pole": "Maillage, espace public, centre quartier"}, "coordinates": {"lat": 4.914643008684632, "lon": 45.752099728219314}}, {"data": {"address": "Quai Claude Bernard", "address2": "Sur le quai haut", "name": "H\u00f4pital St Luc - St Joseph", "bike_stands": "28", "pole": "Tramway, h\u00f4pital"}, "coordinates": {"lat": 4.834752004711106, "lon": 45.749417695294724}}, {"data": {"address": "Boulevard de la Croix Rousse", "address2": "devant la mairie du 4\u00e8me", "name": "Mairie du 4e", "bike_stands": "20", "pole": "mairie"}, "coordinates": {"lat": 4.827765221864175, "lon": 45.77420044069996}}, {"data": {"address": "135 rue Ch\u00e2teau Gaillard", "address2": "", "name": "Montgolfier / Ch\u00e2teau Gaillard", "bike_stands": "17", "pole": "Maillage"}, "coordinates": {"lat": 4.890369565771878, "lon": 45.77155773766754}}, {"data": {"address": "Place Antoinette", "address2": "Angle rue Antoinette et cours Richard", "name": "Place Ronde", "bike_stands": "21", "pole": "coeur de quartier"}, "coordinates": {"lat": 4.889268557413093, "lon": 45.75364484459555}}, {"data": {"address": "All\u00e9e Achille Lignon", "address2": "", "name": "Cit\u00e9 Internationale - T\u00eate d'Or nord", "bike_stands": "22", "pole": "Parc, Amphith\u00e9\u00e2tre"}, "coordinates": {"lat": 4.85963914713868, "lon": 45.784611049886635}}, {"data": {"address": "Boulevard du 11 novembre 1918", "address2": "Entr\u00e9e parc", "name": "Parc T\u00eate d'Or / Stalingrad", "bike_stands": "35", "pole": "Parc T\u00eate d'Or, itin\u00e9raire cyclable"}, "coordinates": {"lat": 4.859991160995687, "lon": 45.77970161324894}}, {"data": {"address": "Place Adrien Godien", "address2": "angle Mont\u00e9e de la Boucle", "name": "Place Adrien Godien", "bike_stands": "19", "pole": "maillage"}, "coordinates": {"lat": 4.840971623355241, "lon": 45.77919850529233}}, {"data": {"address": "133, 137 Cours Gambetta", "address2": "", "name": "Mus\u00e9e Africain", "bike_stands": "22", "pole": "Universit\u00e9 Jean Moulin, mus\u00e9e africain, commerces"}, "coordinates": {"lat": 4.857925030063062, "lon": 45.750253311906036}}, {"data": {"address": "13 rue de Verdun", "address2": "", "name": "Verdun/Desgrand", "bike_stands": "21", "pole": "Maillage"}, "coordinates": {"lat": 4.897085924118777, "lon": 45.78405134368474}}, {"data": {"address": "rue louis fort", "address2": "", "name": "Ch\u00e2teau Gaillard / Dupeuble", "bike_stands": "16", "pole": "maillage"}, "coordinates": {"lat": 4.888038740879778, "lon": 45.774750799311725}}, {"data": {"address": "52, Rue du Poizat", "address2": "", "name": "Gare de Villeurbanne", "bike_stands": "22", "pole": "Tramway, maillage"}, "coordinates": {"lat": 4.891489432708598, "lon": 45.755766854637514}}, {"data": {"address": "Face 45, Quai Joseph Gillet", "address2": "", "name": "Pont Masaryk", "bike_stands": "22", "pole": ""}, "coordinates": {"lat": 4.810698606641112, "lon": 45.77817206741968}}, {"data": {"address": "139 avenue Faure", "address2": "", "name": "Kimmerling / Faure", "bike_stands": "20", "pole": "Bureaux, habitat, coll\u00e8ge"}, "coordinates": {"lat": 4.86346591659575, "lon": 45.754263170859886}}, {"data": {"address": "place Meissonier", "address2": "Angle sud-est de la place", "name": "Meissonier", "bike_stands": "10", "pole": "maillage"}, "coordinates": {"lat": 4.832889708282154, "lon": 45.76608860076567}}, {"data": {"address": "avenue Jean Jaur\u00e8s", "address2": "angle rue de la Guilloti\u00e8re", "name": "Jean Jaur\u00e8s / Guilloti\u00e8re", "bike_stands": "10", "pole": "maillage"}, "coordinates": {"lat": 4.846363220053329, "lon": 45.752573064361876}}, {"data": {"address": "Rue Sainte H\u00e9l\u00e8ne", "address2": "Entre rue Victor Hugi et rue d'Auvergne", "name": "Hugo / Ste H\u00e9l\u00e8ne", "bike_stands": "20", "pole": "commerces"}, "coordinates": {"lat": 4.829892328199222, "lon": 45.754676167368594}}, {"data": {"address": "184 avenue Paul Santy", "address2": "", "name": "Stade Vuillermet", "bike_stands": "18", "pole": "Stade, commerces"}, "coordinates": {"lat": 4.881419006318656, "lon": 45.72533355692043}}, {"data": {"address": "Place des C\u00e9lestins", "address2": "C\u00f4t\u00e9 nord de la place, vers l'ascenseur", "name": "C\u00e9lestins", "bike_stands": "22", "pole": "th\u00e9\u00e2tre"}, "coordinates": {"lat": 4.832071611386376, "lon": 45.75993983258972}}, {"data": {"address": "Grande rue de la Guilloti\u00e8re", "address2": "angle rue de la Madeleine", "name": "Guilloti\u00e8re / Madeleine", "bike_stands": "10", "pole": "maillage"}, "coordinates": {"lat": 4.848040767744837, "lon": 45.751036664724865}}, {"data": {"address": "Avenue Jean Jaur\u00e8s", "address2": "Au niveau du square Galtier", "name": "Gerland / Square Galtier", "bike_stands": "40", "pole": "M\u00e9tro B, Stade de Gerland"}, "coordinates": {"lat": 4.831145689672806, "lon": 45.72748909295456}}, {"data": {"address": "14 quai Saint Vincent", "address2": "", "name": "Subsistances", "bike_stands": "22", "pole": "Les Subsistances"}, "coordinates": {"lat": 4.819816657420369, "lon": 45.76789576947694}}, {"data": {"address": "Place Flammarion", "address2": "c\u00f4t\u00e9 rue Philippe de Lassalle", "name": "Place Flammarion", "bike_stands": "18", "pole": "maillage"}, "coordinates": {"lat": 4.820244929131677, "lon": 45.77929010591582}}, {"data": {"address": "Mont\u00e9e des Carm\u00e9lites", "address2": "", "name": "Carm\u00e9lites / Burdeau", "bike_stands": "16", "pole": ""}, "coordinates": {"lat": 4.82926950532075, "lon": 45.77000157409108}}, {"data": {"address": "", "address2": "", "name": "Saint Jean", "bike_stands": "12", "pole": "Coll\u00e8ge Jean Vilar"}, "coordinates": {"lat": 4.904488845789296, "lon": 45.78044582171094}}, {"data": {"address": "27 rue de la Thibaudi\u00e8re", "address2": "", "name": "Jaur\u00e8s/Thibaudi\u00e8re", "bike_stands": "18", "pole": "Maillage"}, "coordinates": {"lat": 4.845192520164354, "lon": 45.75026387369146}}, {"data": {"address": "Place du Ch\u00e2teau", "address2": "A c\u00f4t\u00e9 de l'Eglise", "name": "Place du Ch\u00e2teau", "bike_stands": "25", "pole": "coeur de quartier"}, "coordinates": {"lat": 4.887285723219294, "lon": 45.74951707884712}}, {"data": {"address": "rue denfert-Rochereau", "address2": "angle rue Jacquart", "name": "Jacquart / Denfer-Rochereau", "bike_stands": "14", "pole": "maillage"}, "coordinates": {"lat": 4.825421823983698, "lon": 45.77592301794406}}, {"data": {"address": "Rue Paul Bert", "address2": "Face place des Martyrs de la R\u00e9sistance", "name": "Place des Martyrs de la R\u00e9sistance", "bike_stands": "20", "pole": "maillage (piscine Garibaldi)"}, "coordinates": {"lat": 4.853471912113022, "lon": 45.757123071687246}}, {"data": {"address": "Rue Edouard Rochet", "address2": "", "name": "Sans Souci", "bike_stands": "20", "pole": "M\u00e9tro D, Institut Lumi\u00e8re, Place des fr\u00e8res Lumi\u00e8re"}, "coordinates": {"lat": 4.865285783031516, "lon": 45.74724873382146}}, {"data": {"address": "Quai Charles de Gaulle", "address2": "Face parvis palais des congr\u00e9s", "name": "Cit\u00e9 Int. / Palais des Congr\u00e8s", "bike_stands": "21", "pole": "Cin\u00e9ma, casino, palais des congr\u00e9s"}, "coordinates": {"lat": 4.854124072710764, "lon": 45.78542142496238}}, {"data": {"address": "41 rue du Bourbonnais", "address2": "angle rue Horand/rue Masset", "name": "Masset / 3 septembre 1944", "bike_stands": "12", "pole": "maillage"}, "coordinates": {"lat": 4.800352459525916, "lon": 45.77345839794622}}, {"data": {"address": "Place Regaud", "address2": "Angle rue Tupin / rue Herriot", "name": "Place Regaud", "bike_stands": "12", "pole": "maillage, Virgin"}, "coordinates": {"lat": 4.834286688347044, "lon": 45.763076929567}}, {"data": {"address": "Place Gerson", "address2": "A proximit\u00e9 du Quai Pierre Size", "name": "Saint Paul / Place Gerson", "bike_stands": "20", "pole": "Vieux Lyon"}, "coordinates": {"lat": 4.826984323306274, "lon": 45.76704447145251}}, {"data": {"address": "Avenue Tony Garnier", "address2": "", "name": "Halle Tony Garnier", "bike_stands": "20", "pole": "Halle Tony Garnier"}, "coordinates": {"lat": 4.823932182416953, "lon": 45.73124978076507}}, {"data": {"address": "55 quai pierre Scize", "address2": "", "name": "L'Homme de la Roche", "bike_stands": "20", "pole": "Itin\u00e9raire cyclable, commerces, coeur de quartier"}, "coordinates": {"lat": 4.820009540317765, "lon": 45.76655303565491}}, {"data": {"address": "rue Guillaume Paradin", "address2": "devant entr\u00e9e de la fac", "name": "La\u00ebnnec", "bike_stands": "16", "pole": "facult\u00e9 de m\u00e9decine, m\u00e9tro"}, "coordinates": {"lat": 4.886880308711533, "lon": 45.73814005602949}}, {"data": {"address": "Face 158, Avenue Roger Salengro", "address2": "", "name": "Croix Luizet", "bike_stands": "22", "pole": "Centre quartier"}, "coordinates": {"lat": 4.88349957514267, "lon": 45.78071984775442}}, {"data": {"address": "4 rue Paul Sisley", "address2": "", "name": "Sisley/Dauphin\u00e9", "bike_stands": "17", "pole": "Jardin public, tramway"}, "coordinates": {"lat": 4.868799714361196, "lon": 45.752817000940254}}, {"data": {"address": "Rue de la Bourse", "address2": "Long du Coll\u00e8ge-Lyc\u00e9e Amp\u00e8re", "name": "Amp\u00e8re", "bike_stands": "20", "pole": "Lyc\u00e9e Amp\u00e8re et rue de la Bourse, M\u00e9tro A"}, "coordinates": {"lat": 4.836895741420563, "lon": 45.765811382204056}}, {"data": {"address": "313 route de Vienne", "address2": "", "name": "H\u00f4pital St-Jean de Dieu", "bike_stands": "20", "pole": "H\u00f4pital Saint Jean de Dieu, logement colllectif"}, "coordinates": {"lat": 4.854152127127522, "lon": 45.72427050288891}}, {"data": {"address": "Proximit\u00e9 Mus\u00e9e d'art contemporain", "address2": "", "name": "Cit\u00e9 Int. / Mus\u00e9e d'art contemporain", "bike_stands": "23", "pole": "Cin\u00e9mas, Cit\u00e9 internationale, Mus\u00e9e d'art contemporain, parc"}, "coordinates": {"lat": 4.852140403416399, "lon": 45.783881614283054}}, {"data": {"address": "259 av. Jean Jaur\u00e8s", "address2": "Angle avenue Debourg", "name": "Debourg / Jean Jaur\u00e8s", "bike_stands": "20", "pole": "M\u00e9tro B, ENS lettres, biblioth\u00e8que"}, "coordinates": {"lat": 4.833916130030677, "lon": 45.73167772098127}}, {"data": {"address": "58 rue de S\u00e8ze", "address2": "angle rue Boileau", "name": "Mairie du 6e", "bike_stands": "15", "pole": "mairie du 6e"}, "coordinates": {"lat": 4.849499452740504, "lon": 45.768399053286196}}, {"data": {"address": "53 rue de l'Universit\u00e9", "address2": "", "name": "Jaur\u00e8s / Universit\u00e9", "bike_stands": "20", "pole": "Coeur de quartier, commerces"}, "coordinates": {"lat": 4.843237948103862, "lon": 45.74854285671644}}, {"data": {"address": "101 cours Charlemagne", "address2": "", "name": "Confluence H\u00f4tel de R\u00e9gion", "bike_stands": "32", "pole": "H\u00f4tel de R\u00e9gion - Tram Montrochet - P\u00f4le de loisirs"}, "coordinates": {"lat": 4.819179518436805, "lon": 45.740538315203914}}, {"data": {"address": "Rue Chevreul", "address2": "", "name": "CROUS", "bike_stands": "17", "pole": "Crous"}, "coordinates": {"lat": 4.847858829654866, "lon": 45.7453992340993}}, {"data": {"address": "149 rue Boileau", "address2": "", "name": "Place de l'Europe", "bike_stands": "15", "pole": ""}, "coordinates": {"lat": 4.849930546075752, "lon": 45.76405761271891}}, {"data": {"address": "17 rue Pizay", "address2": "", "name": "Pizay", "bike_stands": "22", "pole": ""}, "coordinates": {"lat": 4.836391685356329, "lon": 45.767200417220316}}, {"data": {"address": "All\u00e9e Andr\u00e9e Mure", "address2": "", "name": "Confluence Darse", "bike_stands": "22", "pole": ""}, "coordinates": {"lat": 4.815816311556859, "lon": 45.74339197495656}}, {"data": {"address": "40 quai fulchiron", "address2": "", "name": "Fulchiron / Choulans", "bike_stands": "19", "pole": "maillage"}, "coordinates": {"lat": 4.821661798351628, "lon": 45.75200117694329}}, {"data": {"address": "8 rue de l'Universit\u00e9", "address2": "angle rue de Marseille", "name": "Marseille / Universit\u00e9", "bike_stands": "29", "pole": "tram"}, "coordinates": {"lat": 4.839365463840346, "lon": 45.75093339042987}}, {"data": {"address": "39 rue Roger Salengro", "address2": "", "name": "Salengro / Descartes", "bike_stands": "16", "pole": "Maillage"}, "coordinates": {"lat": 4.871629178144365, "lon": 45.77625175150645}}, {"data": {"address": "Quai G\u00e9n\u00e9ral Sarrail face 4", "address2": "angle rue Vauban", "name": "Sarrail / Vauban", "bike_stands": "20", "pole": ""}, "coordinates": {"lat": 4.841565471491022, "lon": 45.76485827235323}}, {"data": {"address": "Rue Cdt Charcot", "address2": "Angle Fort St Ir\u00e9n\u00e9e/rue Cdt Charcot", "name": "Charcot / R\u00e9sidence universitaire", "bike_stands": "32", "pole": "R\u00e9sidence universitaire, march\u00e9"}, "coordinates": {"lat": 4.807372769269818, "lon": 45.754798196380854}}, {"data": {"address": "Rue Pierre Delore", "address2": "", "name": "Pierre Delore", "bike_stands": "20", "pole": "Habitat"}, "coordinates": {"lat": 4.852286010941524, "lon": 45.73874109234197}}, {"data": {"address": "Rue Garibaldi", "address2": "", "name": "Garibaldi / Domer", "bike_stands": "19", "pole": "Lyc\u00e9e Professionnel, CROUS"}, "coordinates": {"lat": 4.851597928933066, "lon": 45.74772702486593}}, {"data": {"address": "Place Ambroise Courtois", "address2": "Face au cours A. Thomas", "name": "Place Ambroise Courtois", "bike_stands": "20", "pole": "M\u00e9tro D, Institut Lumi\u00e8re, Place et avenue des fr\u00e8res Lumi\u00e8re"}, "coordinates": {"lat": 4.871589566321497, "lon": 45.74533445661316}}, {"data": {"address": "Avenue Piaton", "address2": "Angle rue Condorcet", "name": "Condorcet / Piaton", "bike_stands": "10", "pole": "centre quartier, itin\u00e9raire cyclable"}, "coordinates": {"lat": 4.867504213135082, "lon": 45.77421517841813}}, {"data": {"address": "Devant 49 bis esplanade Lima Cretet", "address2": "", "name": "Gorge de Loup", "bike_stands": "40", "pole": " Lyc\u00e9e professionnel"}, "coordinates": {"lat": 4.805640280183443, "lon": 45.76735626526236}}, {"data": {"address": "Rue de Trion", "address2": "", "name": "Saint Just / Varillon", "bike_stands": "23", "pole": "M\u00e9tro Saint Just, habitations, commerces"}, "coordinates": {"lat": 4.815304876240883, "lon": 45.75719575350123}}]