[{"coordinates": {"lat": 45.79741374739183, "lon": 4.759919025130095}, "data": {"theme": "DEPLACEMENT", "nom": "Halte Ferroviaire de Dardilly-les-Mouilles", "soustheme": "Gare"}}, {"coordinates": {"lat": 45.765735358215785, "lon": 4.779546454497447}, "data": {"theme": "DEPLACEMENT", "nom": "Gare d'Ecully-la-Demi-Lune", "soustheme": "Gare"}}, {"coordinates": {"lat": 45.734477165767146, "lon": 4.769006531239739}, "data": {"theme": "DEPLACEMENT", "nom": "Halte Ferroviaire de Francheville", "soustheme": "Gare"}}, {"coordinates": {"lat": 45.779830635475776, "lon": 4.80403077519916}, "data": {"theme": "DEPLACEMENT", "nom": "Gare de Lyon-Vaise", "soustheme": "Gare"}}, {"coordinates": {"lat": 45.7520538309701, "lon": 4.771779726826656}, "data": {"theme": "DEPLACEMENT", "nom": "Halte Ferroviaire d'Alai", "soustheme": "Gare"}}, {"coordinates": {"lat": 45.751980869583214, "lon": 4.771899207613189}, "data": {"theme": "DEPLACEMENT", "nom": "Halte Ferroviaire d'Alai", "soustheme": "Gare"}}, {"coordinates": {"lat": 45.79986631583624, "lon": 4.7165245203309185}, "data": {"theme": "DEPLACEMENT", "nom": "Halte Ferroviaire de La Tour-de-Salvagny", "soustheme": "Gare"}}, {"coordinates": {"lat": 45.768707677047296, "lon": 4.748307427153002}, "data": {"theme": "DEPLACEMENT", "nom": "Halte Ferroviaire Le M\u00e9ridien", "soustheme": "Gare"}}, {"coordinates": {"lat": 45.777458733404934, "lon": 4.754014584580494}, "data": {"theme": "DEPLACEMENT", "nom": "Halte Ferroviaire Les Flach\u00e8res", "soustheme": "Gare"}}, {"coordinates": {"lat": 45.777345669709206, "lon": 4.754179444754211}, "data": {"theme": "DEPLACEMENT", "nom": "Halte Ferroviaire Les Flach\u00e8res", "soustheme": "Gare"}}, {"coordinates": {"lat": 45.74835424563064, "lon": 4.825608791340511}, "data": {"theme": "DEPLACEMENT", "nom": "Gare de Lyon-Perrache", "soustheme": "Gare"}}, {"coordinates": {"lat": 45.88844259418586, "lon": 4.804198291807488}, "data": {"theme": "DEPLACEMENT", "nom": "Gare de Saint-Germain-au-Mont-d'Or", "soustheme": "Gare"}}, {"coordinates": {"lat": 45.76150969684904, "lon": 4.758505878360568}, "data": {"theme": "DEPLACEMENT", "nom": "Gare de Tassin", "soustheme": "Gare"}}, {"coordinates": {"lat": 45.745040375723356, "lon": 4.841758313841335}, "data": {"theme": "DEPLACEMENT", "nom": "Gare de Lyon Jean Mac\u00e9", "soustheme": "Gare"}}, {"coordinates": {"lat": 45.8291196923967, "lon": 4.8466597252714845}, "data": {"theme": "DEPLACEMENT", "nom": "Gare de Collonges-Fontaines", "soustheme": "Gare"}}, {"coordinates": {"lat": 45.80383395085482, "lon": 4.89229617710694}, "data": {"theme": "DEPLACEMENT", "nom": "Gare de Cr\u00e9pieux-la-Pape", "soustheme": "Gare"}}, {"coordinates": {"lat": 45.76063071569972, "lon": 4.859322257477686}, "data": {"theme": "DEPLACEMENT", "nom": "Gare de Lyon Part-Dieu", "soustheme": "Gare"}}, {"coordinates": {"lat": 45.82021124362272, "lon": 4.875277029285536}, "data": {"theme": "DEPLACEMENT", "nom": "Gare de Sathonay-Rillieux", "soustheme": "Gare"}}, {"coordinates": {"lat": 45.66574382834726, "lon": 4.853038998023623}, "data": {"theme": "DEPLACEMENT", "nom": "Gare de Feyzin", "soustheme": "Gare"}}, {"coordinates": {"lat": 45.595719483069466, "lon": 4.7725015099019945}, "data": {"theme": "DEPLACEMENT", "nom": "Gare de Givors Canal", "soustheme": "Gare"}}, {"coordinates": {"lat": 45.87492838710757, "lon": 4.832817778443383}, "data": {"theme": "DEPLACEMENT", "nom": "Gare d'Albigny-Neuville", "soustheme": "Gare"}}, {"coordinates": {"lat": 45.78782816148109, "lon": 4.730920395010174}, "data": {"theme": "DEPLACEMENT", "nom": "Halte Ferroviaire du Casino-la-Croix-Laval", "soustheme": "Gare"}}, {"coordinates": {"lat": 45.78210411718469, "lon": 4.735900761191558}, "data": {"theme": "DEPLACEMENT", "nom": "Gare de Charbonni\u00e8res-les-Bains", "soustheme": "Gare"}}, {"coordinates": {"lat": 45.84868600366558, "lon": 4.829525734392029}, "data": {"theme": "DEPLACEMENT", "nom": "Gare de Couzon-au-Mont-d'Or", "soustheme": "Gare"}}, {"coordinates": {"lat": 45.81564153107433, "lon": 4.7609803335489085}, "data": {"theme": "DEPLACEMENT", "nom": "Halte Ferroviaire de Dardilly-le-Jubin", "soustheme": "Gare"}}, {"coordinates": {"lat": 45.81553043901139, "lon": 4.761251132004801}, "data": {"theme": "DEPLACEMENT", "nom": "Halte Ferroviaire de Dardilly-le-Jubin", "soustheme": "Gare"}}, {"coordinates": {"lat": 45.58502735018708, "lon": 4.766202160038603}, "data": {"theme": "DEPLACEMENT", "nom": "Gare de Givors Ville", "soustheme": "Gare"}}, {"coordinates": {"lat": 45.76600518537762, "lon": 4.826842360456096}, "data": {"theme": "DEPLACEMENT", "nom": "Gare Saint-Paul", "soustheme": "Gare"}}, {"coordinates": {"lat": 45.607311988402195, "lon": 4.796387085393304}, "data": {"theme": "DEPLACEMENT", "nom": "Gare de Grigny le Sablon", "soustheme": "Gare"}}, {"coordinates": {"lat": 45.60742633311571, "lon": 4.796284380397014}, "data": {"theme": "DEPLACEMENT", "nom": "Gare de Grigny le Sablon", "soustheme": "Gare"}}, {"coordinates": {"lat": 45.645655859380476, "lon": 4.813305975606825}, "data": {"theme": "DEPLACEMENT", "nom": "Gare de Vernaison", "soustheme": "Gare"}}, {"coordinates": {"lat": 45.70518968264369, "lon": 4.887948451812528}, "data": {"theme": "DEPLACEMENT", "nom": "Gare de V\u00e9nissieux", "soustheme": "Gare"}}, {"coordinates": {"lat": 45.68662427412762, "lon": 4.9343237227807535}, "data": {"theme": "DEPLACEMENT", "nom": "Gare de Saint-Priest", "soustheme": "Gare"}}, {"coordinates": {"lat": 45.705859201039196, "lon": 4.852544004404558}, "data": {"theme": "DEPLACEMENT", "nom": "Gare de Saint-Fons", "soustheme": "Gare"}}, {"coordinates": {"lat": 45.7066439934092, "lon": 4.824589175665144}, "data": {"theme": "DEPLACEMENT", "nom": "Halte Ferroviaire de Pierre-B\u00e9nite", "soustheme": "Gare"}}, {"coordinates": {"lat": 45.706694805327714, "lon": 4.824750846529304}, "data": {"theme": "DEPLACEMENT", "nom": "Halte Ferroviaire de Pierre-B\u00e9nite", "soustheme": "Gare"}}, {"coordinates": {"lat": 45.71733874812567, "lon": 4.813088767280236}, "data": {"theme": "DEPLACEMENT", "nom": "Gare d'Oullins", "soustheme": "Gare"}}, {"coordinates": {"lat": 45.76602443993999, "lon": 4.8047890463719565}, "data": {"theme": "DEPLACEMENT", "nom": "Gare de Lyon Gorge-de-Loup", "soustheme": "Gare"}}, {"coordinates": {"lat": 45.72908064800095, "lon": 4.93844685377256}, "data": {"theme": "DEPLACEMENT", "nom": "A\u00e9rodrome de Lyon Bron", "soustheme": "A\u00e9rodrome"}}, {"coordinates": {"lat": 45.653626162756325, "lon": 4.9113183770130435}, "data": {"theme": "DEPLACEMENT", "nom": "A\u00e9rodrome de Lyon Corbas", "soustheme": "A\u00e9rodrome"}}, {"coordinates": {"lat": 45.906887356645946, "lon": 4.778551824488367}, "data": {"theme": "DEPLACEMENT", "nom": "Halte de Quincieux", "soustheme": "Gare"}}]